locality,municipality,state,postcode,lat,long,bnelat,bnelong,bswlat,bswlong
"Abbotsbury","Fairfield City Council","New South Wales",2176,-33.875000,150.862000,-33.846458,150.876706,-33.883780,150.842448
"Abbotsford (NSW)","City of Canada Bay Council","New South Wales",2046,-33.852150,151.127260,-33.843676,151.137579,-33.857364,151.122186
"Abercrombie","Council of the City of Sydney","New South Wales",2000,-33.864214,151.207809,0.000000,0.000000,0.000000,0.000000
"Aberdare","Cessnock City Council","New South Wales",2325,-32.843287,151.376438,-32.828566,151.398472,-32.849090,151.362085
"Aberdeen (NSW)","","New South Wales",2336,-32.167730,150.873294,-32.122915,150.948159,-32.218055,150.847133
"Aberfoyle","Stirling","Scotland",FK8,56.178672,-4.384603,56.183721,-4.374646,56.175871,-4.401710
"Aberglasslyn","Maitland City Council","New South Wales",2320,-32.694656,151.534608,-32.678130,151.548646,-32.708981,151.514879
"Abermain","Cessnock City Council","New South Wales",2326,-32.816667,151.433333,-32.791645,151.462272,-32.854318,151.409999
"Abernethy","Perth and Kinross","Scotland",PH2,56.332014,-3.313714,56.339699,-3.294350,56.326119,-3.327381
"Acacia Gardens","Blacktown City Council","New South Wales",2763,-33.732200,150.917000,-33.729724,150.921401,-33.738502,150.906198
"Adaminaby","Snowy River Shire Council","New South Wales",2629,-35.996111,148.773889,-35.881270,148.923774,-36.133633,148.620138
"Adamstown","Newcastle City Council","New South Wales",2289,-32.934350,151.725840,-32.927602,151.738994,-32.950755,151.712053
"Adamstown Heights","","New South Wales",2289,-32.947705,151.715180,-32.941078,151.724733,-32.956921,151.693990
"Adelong","Tumut Council","New South Wales",2729,-35.311110,148.065822,-35.275647,148.095776,-35.337527,148.042759
"Agnes Banks","","New South Wales",2753,-33.615290,150.716160,-33.587879,150.725105,-33.648265,150.672615
"Airds","Maitland City Council","New South Wales",2321,-32.703338,151.465838,0.000000,0.000000,0.000000,0.000000
"Akolele","Eurobodalla Shire Council","New South Wales",2546,-36.346611,150.075097,-36.335460,150.095163,-36.363712,150.054728
"Albion Park","Shellharbour City Council","New South Wales",2527,-34.575949,150.773733,-34.562751,150.797077,-34.602266,150.755221
"Albion Park Rail","Shellharbour City Council","New South Wales",2527,-34.566667,150.791667,-34.544906,150.822148,-34.578390,150.771924
"Albury","Albury City Council","New South Wales",2640,-36.073729,146.913542,-36.060881,146.934022,-36.086003,146.897936
"Aldavilla","Kempsey Shire Council","New South Wales",2440,-31.081667,152.767778,-31.055271,152.792595,-31.090463,152.727852
"Alexandria","","Alexandria Governorate",,31.200092,29.918739,31.330904,30.086402,31.117318,29.823370
"Alfords Point","Sutherland Shire Council","New South Wales",2234,-33.984800,151.021420,-33.975781,151.039141,-33.998154,151.013743
"Alison (Dungog - NSW)","Wyong Shire Council","New South Wales",2259,-33.265000,151.398000,-33.250973,151.405650,-33.280896,151.388100
"Allambie Heights","Warringah Council","New South Wales",2100,-33.762400,151.250000,-33.753667,151.267142,-33.785691,151.232845
"Allandale (NSW)","","New South Wales",2320,-32.715000,151.417778,-32.707583,151.439661,-32.741801,151.387224
"Allawah","Kogarah City Council","New South Wales",2218,-33.974900,151.116700,-33.968480,151.120517,-33.977189,151.108172
"Allgomera","Nambucca Shire Council","New South Wales",2441,-30.813417,152.837454,-30.744691,152.880376,-30.892796,152.731233
"Allworth","Great Lakes Council","New South Wales",2425,-32.550000,151.950000,-32.519760,151.971686,-32.569102,151.909140
"Allynbrook","Dungog Shire Council","New South Wales",2311,-32.348391,151.530416,-32.315782,151.596761,-32.384170,151.505863
"Alstonvale","Ballina Shire Council","New South Wales",2477,-28.806110,153.445280,-28.777476,153.465606,-28.811850,153.423405
"Alstonville","Ballina Shire Council","New South Wales",2477,-28.840865,153.449584,-28.809071,153.489359,-28.870261,153.405468
"Alumy Creek","Clarence Valley Council","New South Wales",2460,-29.641834,152.958842,-29.626203,152.980564,-29.658717,152.934636
"Ambarvale","Campbelltown City Council","New South Wales",2560,-34.083330,150.800670,-34.079631,150.807980,-34.098216,150.780715
"Angledale","Bega Valley Shire Council","New South Wales",2550,-36.631667,149.884444,-36.609126,149.915771,-36.658006,149.820825
"Anglers Reach","Snowy River Shire Council","New South Wales",2629,-36.018181,148.707616,-35.991056,148.714715,-36.030219,148.641669
"Angourie","Clarence Valley Council","New South Wales",2464,-29.479167,153.359444,-29.451671,153.368812,-29.486458,153.342099
"Anna Bay","Port Stephens Council","New South Wales",2316,-32.766667,152.083333,-32.742667,152.113486,-32.789718,152.035818
"Annandale (NSW)","","New South Wales",2038,-33.881400,151.170700,-33.871099,151.177333,-33.888282,151.162100
"Annangrove","The Hills Shire Council","New South Wales",2156,-33.652550,150.940960,-33.627947,150.980124,-33.682967,150.923007
"Appin (NSW)","Wollondilly Shire Council","New South Wales",2560,-34.200000,150.783333,-34.163839,150.897928,-34.259837,150.719135
"Apsley (NSW)","Wellington Council","New South Wales",2820,-32.606210,148.960756,-32.576616,149.000670,-32.647776,148.926412
"Arakoon","Kempsey Shire Council","New South Wales",2431,-30.905691,153.064461,-30.875000,153.090386,-30.961523,153.035902
"Araluen (NSW)","Palerang Council","New South Wales",2622,-35.621837,149.811484,-35.571529,149.922231,-35.717032,149.728631
"Arcadia (NSW)","The Council of the Shire of Hornsby","New South Wales",2159,-33.624290,151.044550,-33.577852,151.109617,-33.635767,151.026638
"Arcadia Vale","Lake Macquarie City Council","New South Wales",2283,-33.062000,151.587000,-33.050827,151.588446,-33.065840,151.565243
"Arding","Uralla Shire Council","New South Wales",2358,-30.572526,151.539620,-30.530240,151.578350,-30.614224,151.463800
"Ardlethan","","New South Wales",2665,-34.350000,146.900000,-34.128163,146.956659,-34.541005,146.728298
"Argenton","Lake Macquarie City Council","New South Wales",2284,-32.935558,151.628969,-32.927505,151.642503,-32.943027,151.621601
"Argents Hill","Nambucca Shire Council","New South Wales",2449,-30.615856,152.800566,-30.580723,152.841795,-30.637007,152.614751
"Ariah Park","","New South Wales",2665,-34.402594,147.262453,-34.161693,147.320894,-34.448842,147.082800
"Armatree","Gilgandra Shire Council","New South Wales",2828,-31.425002,148.513322,-31.344343,148.714795,-31.564463,148.281382
"Armidale","Armidale Dumaresq Council","New South Wales",2350,-30.501562,151.666199,-30.417210,151.775605,-30.583966,151.559182
"Arncliffe","Rockdale City Council","New South Wales",2205,-33.936323,151.143233,-33.930354,151.161220,-33.946889,151.129702
"Arndell Park","Blacktown City Council","New South Wales",2148,-33.790000,150.876000,-33.782680,150.897981,-33.798045,150.871264
"Arrawarra","Coffs Harbour City Council","New South Wales",2456,-30.052930,153.191172,-30.037856,153.199156,-30.066056,153.183572
"Arrawarra Headland","Coffs Harbour City Council","New South Wales",2456,-30.068611,153.195278,-30.057678,153.207748,-30.076600,153.183206
"Artarmon","Willoughby City Council","New South Wales",2064,-33.808940,151.182920,-33.801448,151.194488,-33.822482,151.175419
"Ashbury","","New South Wales",2193,-33.899710,151.119931,-33.895521,151.125578,-33.906722,151.109965
"Ashby (NSW)","Clarence Valley Council","New South Wales",2463,-29.447137,153.185540,-29.414426,153.204575,-29.466517,153.164641
"Ashby Heights","Clarence Valley Council","New South Wales",2463,-29.398333,153.176111,-29.344430,153.215114,-29.429323,153.143487
"Ashcroft","Liverpool City Council","New South Wales",2168,-33.914470,150.898739,-33.909483,150.907749,-33.923091,150.894253
"Ashfield (NSW)","The Council of the Municipality of Ashfield","New South Wales",2131,-33.888900,151.124900,-33.874190,151.138815,-33.904777,151.116073
"Ashford (NSW)","Inverell Shire Council","New South Wales",2361,-29.323056,151.092500,-29.136113,151.353344,-29.446419,150.980243
"Ashley","Blacktown City Council","New South Wales",2765,-33.721891,150.842681,0.000000,0.000000,0.000000,0.000000
"Ashmont","Wagga Wagga City Council","New South Wales",2650,-35.127128,147.332078,-35.114958,147.345415,-35.134065,147.318746
"Ashtonfield","Maitland City Council","New South Wales",2323,-32.766667,151.600000,-32.764121,151.620756,-32.792192,151.581710
"Asquith","The Council of the Shire of Hornsby","New South Wales",2077,-33.689000,151.105000,-33.679247,151.137973,-33.697434,151.101410
"Attunga","Tamworth Regional Council","New South Wales",2345,-30.929444,150.845000,-30.829732,150.974905,-30.969140,150.699299
"Auburn (NSW)","Auburn City Council","New South Wales",2144,-33.865630,151.023600,-33.834392,151.044643,-33.881276,151.011856
"Austinmer","Wollongong City Council","New South Wales",2515,-34.306311,150.934510,-34.292190,150.943092,-34.311795,150.908977
"Austral","Liverpool City Council","New South Wales",2179,-33.931090,150.793610,-33.896741,150.831104,-33.952023,150.786634
"Avalon (NSW)","Pittwater Council","New South Wales",2107,-33.630284,151.329770,-33.614211,151.343900,-33.643230,151.311501
"Avoca Beach","Gosford City Council","New South Wales",2251,-33.465000,151.435000,-33.459127,151.444024,-33.481914,151.412562
"Awaba","Lake Macquarie City Council","New South Wales",2283,-33.009878,151.544993,-32.989904,151.568772,-33.057728,151.514083
"Aylmerton","Wingecarribee Shire Council","New South Wales",2575,-34.418435,150.492130,-34.413706,150.512233,-34.434640,150.483229
"Baan Baa","Narrabri Shire Council","New South Wales",2390,-30.595594,149.955866,-30.477735,150.049164,-30.662567,149.827875
"Backmede","Richmond Valley Council","New South Wales",2470,-28.785995,153.025311,-28.721856,153.050779,-28.801003,152.997063
"Badgerys Creek","","New South Wales",2555,-33.882877,150.760850,-33.850509,150.776060,-33.912816,150.712230
"Balaclava (NSW)","Wingecarribee Shire Council","New South Wales",2575,-34.441301,150.471431,-34.432974,150.498355,-34.446898,150.466986
"Balala","Uralla Shire Council","New South Wales",2358,-30.608623,151.289675,-30.508369,151.419960,-30.728487,151.146679
"Balcolyn","Lake Macquarie City Council","New South Wales",2264,-33.095931,151.555944,-33.088906,151.559637,-33.100450,151.543294
"Bald Hills (NSW)","Bega Valley Shire Council","New South Wales",2549,-36.915121,149.846843,-36.894677,149.873867,-36.925963,149.815298
"Balgowlah","Manly Council","New South Wales",2093,-33.796450,151.258540,-33.786652,151.270076,-33.802406,151.252351
"Balgowlah Heights","Manly Council","New South Wales",2093,-33.807223,151.264165,-33.800476,151.275216,-33.815372,151.255767
"Balgownie","Yarra Ranges Shire","Victoria",3775,-37.632193,145.400362,0.000000,0.000000,0.000000,0.000000
"Balladoran","Gilgandra Shire Council","New South Wales",2831,-31.782642,148.643884,-31.728714,148.752938,-31.992311,148.437692
"Ballimore","","New South Wales",2830,-32.172594,148.915973,-32.059619,148.973149,-32.273833,148.799254
"Ballina","Ballina Shire Council","New South Wales",2478,-28.837965,153.562907,-28.795479,153.583314,-28.875265,153.532588
"Balmain","Leichhardt Municipal Council","New South Wales",2041,-33.858950,151.179060,-33.852483,151.192721,-33.864172,151.168667
"Balmain East","Leichhardt Municipal Council","New South Wales",2041,-33.858110,151.190170,-33.854246,151.196573,-33.860051,151.188347
"Balmoral (Lake Macquarie - NSW)","Lake Macquarie City Council","New South Wales",2283,-33.044867,151.579308,-33.041719,151.589408,-33.050803,151.571276
"Balmoral (Wingecarribee - NSW)","Wingecarribee Shire Council","New South Wales",2571,-34.315278,150.517778,-34.269518,150.549422,-34.334167,150.483543
"Balranald","Balranald Shire Council","New South Wales",2715,-34.636706,143.561581,-33.825987,143.807847,-34.833595,142.970675
"Bandon Grove","Dungog Shire Council","New South Wales",2420,-32.256833,151.712988,-32.224215,151.747123,-32.327386,151.630736
"Bangalee (NSW)","Shoalhaven City Council","New South Wales",2541,-34.844346,150.564656,-34.828674,150.574829,-34.855276,150.524538
"Bangalow","Byron Shire Council","New South Wales",2479,-28.686430,153.522467,-28.644245,153.550085,-28.717000,153.497849
"Bangheet","Gwydir Shire Council","New South Wales",2404,-29.912259,150.351629,-29.745087,150.510332,-29.926966,150.335731
"Bangor (NSW)","Sutherland Shire Council","New South Wales",2234,-34.019080,151.027350,-34.005342,151.048355,-34.028080,151.018858
"Banksia","Rockdale City Council","New South Wales",2216,-33.947760,151.148060,-33.942550,151.157347,-33.950415,151.133381
"Banksmeadow","The Council of the City of Botany Bay","New South Wales",2019,-33.957310,151.206990,-33.942182,151.223691,-33.969880,151.206052
"Bankstown","Bankstown City Council","New South Wales",2200,-33.918170,151.034970,-33.903853,151.051796,-33.936034,151.011151
"Bankstown Aerodrome","Bankstown City Council","New South Wales",2200,-33.924593,150.997662,0.000000,0.000000,0.000000,0.000000
"Bannaby","Upper Lachlan Shire Council","New South Wales",2580,-34.412906,149.908087,-34.332623,150.123226,-34.484002,149.865856
"Bannister (NSW)","Upper Lachlan Shire Council","New South Wales",2580,-34.602161,149.492962,-34.558099,149.586883,-34.666647,149.410354
"Banora Point","Tweed Shire Council","New South Wales",2486,-28.223333,153.538056,-28.205331,153.562813,-28.243451,153.503982
"Bar Beach","Newcastle City Council","New South Wales",2300,-32.940000,151.767778,-32.934173,151.774006,-32.944486,151.763405
"Bar Point","Gosford City Council","New South Wales",2083,-33.512577,151.162290,-33.472768,151.196031,-33.523579,151.149508
"Baradine","Warrumbungle Shire Council","New South Wales",2396,-30.950000,149.066667,-30.800774,149.363444,-31.086139,149.011139
"Barangaroo","","New South Wales",2000,-33.863794,151.202230,-33.855263,151.203181,-33.865842,151.200014
"Barcoongere","","New South Wales",2460,-29.900393,153.202336,-29.789539,153.276762,-29.989064,153.126775
"Barden Ridge","Sutherland Shire Council","New South Wales",2234,-34.032000,151.010000,-34.023292,151.021113,-34.047029,150.987142
"Bardwell Park","Rockdale City Council","New South Wales",2207,-33.935390,151.125410,-33.930324,151.133605,-33.941189,151.116954
"Bardwell Valley","Rockdale City Council","New South Wales",2207,-33.937000,151.133000,-33.931758,151.138331,-33.943117,151.122656
"Barellan","","New South Wales",2665,-34.285070,146.569706,-34.007523,146.790665,-34.384997,146.424225
"Bargo","","New South Wales",2574,-34.300000,150.583333,-34.236503,150.634619,-34.337564,150.539239
"Barham","The Council of the Shire of Wakool","New South Wales",2732,-35.624967,144.138607,-35.440584,144.355387,-35.770382,144.026086
"Barkers Vale","Kyogle Council","New South Wales",2474,-28.537986,153.114855,-28.490862,153.154522,-28.574624,153.091540
"Barmedman","","New South Wales",2668,-34.148749,147.385679,-33.989778,147.636079,-34.254427,147.219798
"Barnsley","South Yorkshire","England",,53.552630,-1.479726,53.601337,-1.368343,53.527157,-1.528237
"Barooga","Berrigan Shire Council","New South Wales",3644,-35.905081,145.694246,-35.852604,145.782712,-35.966368,145.614842
"Barraba","","New South Wales",2347,-30.374411,150.617623,-30.235167,150.750250,-30.537385,150.395543
"Barrack Heights","Shellharbour City Council","New South Wales",2528,-34.565000,150.856944,-34.555308,150.867194,-34.570731,150.842512
"Barrack Point","Shellharbour City Council","New South Wales",2528,-34.562539,150.870386,-34.559582,150.875461,-34.567029,150.865050
"Barrengarry","Shoalhaven City Council","New South Wales",2577,-34.683333,150.516667,-34.639060,150.567629,-34.734168,150.481933
"Barrington (NSW)","Gloucester Shire Council","New South Wales",2422,-31.971283,151.909622,-31.943373,151.949733,-32.052359,151.852253
"Barry (Blayney - NSW)","Blayney Shire Council","New South Wales",2799,-33.645917,149.270034,-33.612309,149.311080,-33.685358,149.233163
"Basin View","Shoalhaven City Council","New South Wales",2540,-35.091667,150.566667,-35.076318,150.579851,-35.109166,150.536741
"Bass Hill","Bankstown City Council","New South Wales",2197,-33.900920,150.994900,-33.888593,151.008373,-33.912623,150.977809
"Bateau Bay","Wyong Shire Council","New South Wales",2261,-33.382000,151.485000,-33.368793,151.488687,-33.400937,151.453738
"Batehaven","Eurobodalla Shire Council","New South Wales",2536,-35.733333,150.200000,-35.723651,150.209743,-35.747324,150.187442
"Batemans Bay","Eurobodalla Shire Council","New South Wales",2536,-35.714387,150.179471,-35.664557,150.210242,-35.752088,150.123661
"Bathurst","Bathurst Regional Council","New South Wales",2795,-33.419282,149.577501,-33.403692,149.594663,-33.434257,149.561766
"Batlow","Tumut Council","New South Wales",2730,-35.516667,148.150000,-35.446446,148.210695,-35.667876,148.063351
"Baulkham Hills","","New South Wales",2153,-33.762880,150.992120,-33.719680,151.010438,-33.773087,150.955356
"Baw Baw (NSW)","Goulburn Mulwaree Council","New South Wales",2580,-34.709151,149.633390,-34.660282,149.692096,-34.759932,149.598949
"Bawley Point","Shoalhaven City Council","New South Wales",2539,-35.515625,150.393727,-35.476162,150.407848,-35.539671,150.349436
"Bayview (NSW)","Pittwater Council","New South Wales",2104,-33.658000,151.288000,-33.646825,151.305470,-33.672186,151.274699
"Beacon Hill","Warringah Council","New South Wales",2100,-33.752200,151.256000,-33.742836,151.269700,-33.761729,151.247268
"Beaconsfield (NSW)","Council of the City of Sydney","New South Wales",2015,-33.910960,151.199950,-33.908365,151.202828,-33.914629,151.197988
"Beaumont (NSW)","Shoalhaven City Council","New South Wales",2577,-34.776797,150.576264,-34.757477,150.620207,-34.802112,150.544124
"Beaumont Hills","The Hills Shire Council","New South Wales",2155,-33.700000,150.941000,-33.687257,150.955606,-33.708439,150.928802
"Beckom","","New South Wales",2665,-34.307428,146.984948,-34.139261,147.107652,-34.433056,146.904400
"Bedgerebong","Forbes Shire Council","New South Wales",2871,-33.359491,147.701296,-33.212463,147.804564,-33.405870,147.549516
"Beechwood","Port Macquarie-Hastings Council","New South Wales",2446,-31.442718,152.664796,-31.423246,152.705916,-31.467220,152.644748
"Beecroft","The Council of the Shire of Hornsby","New South Wales",2119,-33.751800,151.063300,-33.741024,151.080139,-33.766367,151.047473
"Beecroft Peninsula","Shoalhaven City Council","New South Wales",2540,-35.051340,150.808332,0.000000,0.000000,0.000000,0.000000
"Beelbangera","Griffith City Council","New South Wales",2680,-34.249129,146.104831,-34.207568,146.139975,-34.269026,146.074567
"Bega","Bega Valley Shire Council","New South Wales",2550,-36.688910,149.841640,-36.645149,149.875513,-36.726460,149.809418
"Belbora","","New South Wales",2422,-31.994883,152.150541,-31.910307,152.244147,-32.048360,152.115292
"Belfield","","New South Wales",2191,-33.905000,151.084000,-33.897149,151.095306,-33.912023,151.077085
"Belgravia","Greater London","England",,51.498227,-0.153549,51.502852,-0.145612,51.487058,-0.160230
"Belimbla Park","Wollondilly Shire Council","New South Wales",2570,-34.085675,150.538542,-34.072142,150.550264,-34.094806,150.526649
"Bella Vista","The Hills Shire Council","New South Wales",2153,-33.742000,150.955000,-33.726369,150.966945,-33.758363,150.942334
"Bellambi","Wollongong City Council","New South Wales",2518,-34.366667,150.916667,-34.360715,150.931372,-34.377916,150.899173
"Bellangry","Port Macquarie-Hastings Council","New South Wales",2446,-31.336314,152.606772,-31.286330,152.655577,-31.366565,152.505919
"Bellata","","New South Wales",2397,-29.901909,149.788398,-29.774935,150.072448,-30.066418,149.479350
"Bellawongarah","Shoalhaven City Council","New South Wales",2535,-34.762288,150.616897,-34.734837,150.653861,-34.783544,150.587977
"Bellbird","Casey City","Victoria",3975,-38.040300,145.247586,0.000000,0.000000,0.000000,0.000000
"Bellbird Heights","Cessnock City Council","New South Wales",2325,-32.848015,151.330499,-32.843467,151.336613,-32.853252,151.325232
"Bellbrook","Kempsey Shire Council","New South Wales",2440,-30.806190,152.509860,-30.562786,152.594738,-30.911093,152.372681
"Bellevue Hill","Woollahra Municipal Council","New South Wales",2023,-33.881010,151.252530,-33.869930,151.267792,-33.889434,151.244857
"Bellingen","Bellingen Shire Council","New South Wales",2454,-30.452242,152.897957,-30.408735,152.952052,-30.499313,152.832754
"Belmont (NSW)","Lake Macquarie City Council","New South Wales",2280,-33.037000,151.660000,-33.015469,151.716786,-33.048528,151.640309
"Belmont North","Lake Macquarie City Council","New South Wales",2280,-33.015000,151.668000,-32.999686,151.688349,-33.027243,151.656842
"Belmont South","Lake Macquarie City Council","New South Wales",2280,-33.052141,151.661111,-33.042505,151.674515,-33.064098,151.649214
"Belmore","Canterbury City Council","New South Wales",2192,-33.917520,151.087820,-33.907522,151.099813,-33.931457,151.076543
"Belmore River","Kempsey Shire Council","New South Wales",2440,-31.091968,152.974291,-31.031701,153.031226,-31.140401,152.916222
"Belrose","Warringah Council","New South Wales",2085,-33.730000,151.220000,-33.700757,151.237928,-33.742323,151.185585
"Bemboka","Bega Valley Shire Council","New South Wales",2550,-36.624474,149.563517,-36.526375,149.737293,-36.705205,149.396904
"Ben Lomond (NSW)","","New South Wales",2365,-30.021015,151.659223,-29.922424,151.836127,-30.089491,151.495249
"Bendalong","Shoalhaven City Council","New South Wales",2539,-35.219147,150.486380,-35.209336,150.545416,-35.255150,150.458732
"Bendemeer","Tamworth Regional Council","New South Wales",2355,-30.869779,151.151243,-30.629697,151.310782,-30.977753,151.044380
"Bendick Murrell","Young Shire Council","New South Wales",2803,-34.165000,148.451111,-34.122507,148.522170,-34.250813,148.373994
"Bendolba","Dungog Shire Council","New South Wales",2420,-32.335339,151.730527,-32.299898,151.756652,-32.398766,151.705364
"Benerembah","","New South Wales",2680,-34.559369,145.873030,-34.218976,145.950415,-34.579948,145.706659
"Beni","Sutherland Shire Council","New South Wales",2230,-34.054618,151.151843,0.000000,0.000000,0.000000,0.000000
"Bensville","Gosford City Council","New South Wales",2251,-33.498611,151.384722,-33.482295,151.407490,-33.511660,151.373400
"Bentley (NSW)","","New South Wales",2480,-28.751024,153.086146,-28.709359,153.147931,-28.802983,153.042447
"Berala","Auburn City Council","New South Wales",2141,-33.874870,151.030730,-33.863705,151.042009,-33.885309,151.025118
"Berambing","","New South Wales",2758,-33.533400,150.443800,-33.520916,150.467447,-33.544446,150.430334
"Beresfield","Newcastle City Council","New South Wales",2322,-32.799000,151.635000,-32.789353,151.665392,-32.816338,151.622287
"Bergalia","Eurobodalla Shire Council","New South Wales",2537,-35.996185,150.122921,-35.954142,150.131678,-36.008386,150.047557
"Berkeley","Alameda County","California",,37.871593,-122.272747,37.905824,-122.234179,37.835727,-122.367781
"Berkeley Vale","Wyong Shire Council","New South Wales",2261,-33.340000,151.435000,-33.320534,151.449804,-33.362164,151.400845
"Berkshire Park","Penrith City Council","New South Wales",2765,-33.688600,150.781650,-33.641541,150.812283,-33.695288,150.739198
"Bermagui","Bega Valley Shire Council","New South Wales",2546,-36.443370,150.061362,-36.384394,150.084157,-36.469511,149.993708
"Berowra","The Council of the Shire of Hornsby","New South Wales",2081,-33.625620,151.146760,-33.611490,151.177165,-33.644636,151.129623
"Berowra Creek","The Council of the Shire of Hornsby","New South Wales",,-33.611822,151.122129,-33.502818,151.186933,-33.720826,151.057325
"Berowra Heights","The Council of the Shire of Hornsby","New South Wales",2082,-33.613340,151.138000,-33.581314,151.153367,-33.621719,151.118673
"Berrambool","Bega Valley Shire Council","New South Wales",2548,-36.879778,149.908925,-36.876207,149.916029,-36.885533,149.904513
"Berrara","Shoalhaven City Council","New South Wales",2540,-35.206926,150.551599,-35.201554,150.557002,-35.211126,150.540856
"Berridale","Snowy River Shire Council","New South Wales",2628,-36.379417,148.843534,-36.287731,148.935245,-36.468811,148.711722
"Berrigan","","New South Wales",2712,-35.665884,145.806461,-35.489010,145.997160,-35.811531,145.659480
"Berrilee","The Council of the Shire of Hornsby","New South Wales",2159,-33.615470,151.098110,-33.586759,151.124348,-33.629023,151.085531
"Berrima","Wingecarribee Shire Council","New South Wales",2577,-34.483333,150.350000,-34.415849,150.385992,-34.519828,150.278676
"Berry","Shoalhaven City Council","New South Wales",2535,-34.775278,150.693889,-34.758862,150.781766,-34.840084,150.665375
"Bethungra","Junee Shire Council","New South Wales",2590,-34.766667,147.850000,-34.646503,147.949960,-34.885165,147.702736
"Beverley Park","Kogarah City Council","New South Wales",2217,-33.978970,151.128500,-33.970514,151.136756,-33.984020,151.124445
"Beverly Hills","Los Angeles County","California",,34.073620,-118.400356,34.112432,-118.372027,34.052666,-118.427041
"Bexhill","East Sussex","England",,50.849906,0.466207,50.863108,0.507538,50.831516,0.412824
"Bexley","Rockdale City Council","New South Wales",2207,-33.956800,151.126210,-33.940073,151.134414,-33.964666,151.102071
"Bexley North","Rockdale City Council","New South Wales",2207,-33.941800,151.111400,-33.935871,151.122909,-33.949159,151.107680
"Bibbenluke","Bombala Council","New South Wales",2632,-36.798906,149.359697,-36.759448,149.377483,-36.854394,149.236717
"Biddon","Gilgandra Shire Council","New South Wales",2827,-31.565120,148.810503,-31.460246,148.917534,-31.645930,148.663430
"Bidwill (NSW)","Blacktown City Council","New South Wales",2770,-33.731556,150.823142,-33.724561,150.831067,-33.735531,150.810244
"Big Springs","Wagga Wagga City Council","New South Wales",2650,-35.125299,147.399451,0.000000,0.000000,0.000000,0.000000
"Bigga","Upper Lachlan Shire Council","New South Wales",2583,-34.080768,149.221187,-33.888119,149.260901,-34.215623,149.002911
"Bilambil","Tweed Shire Council","New South Wales",2486,-28.233333,153.466667,-28.210741,153.503982,-28.238245,153.443562
"Bilambil Heights","Tweed Shire Council","New South Wales",2486,-28.215576,153.484295,-28.193244,153.505839,-28.226975,153.463404
"Bilbul","Griffith City Council","New South Wales",2680,-34.275000,146.150000,-34.242415,146.228866,-34.325518,146.084585
"Bilgola","Pittwater Council","New South Wales",2107,-33.644486,151.327583,-33.641531,151.334362,-33.648021,151.321337
"Billinudgel","Byron Shire Council","New South Wales",2483,-28.503589,153.515702,-28.486742,153.532152,-28.523946,153.495105
"Billywillinga","Bathurst Regional Council","New South Wales",2795,-33.298858,149.439133,-33.213768,149.481441,-33.359249,149.393410
"Bilpin","Hawkesbury City Council","New South Wales",2758,-33.500000,150.533333,-33.351485,150.665417,-33.538433,150.444868
"Binalong","Yass Valley Council","New South Wales",2584,-34.674616,148.631376,-34.535578,148.771638,-34.780662,148.563270
"Binda","Upper Lachlan Shire Council","New South Wales",2583,-34.326222,149.380730,-34.200718,149.445341,-34.414575,149.129960
"Bingara","Gwydir Shire Council","New South Wales",2404,-29.870408,150.565052,-29.732232,150.684235,-29.936167,150.456312
"Bingie","Eurobodalla Shire Council","New South Wales",2537,-36.012567,150.147409,-35.990352,150.164673,-36.052232,150.125753
"Biniguy","","New South Wales",2399,-29.488372,150.115226,-29.458266,150.245068,-29.701863,150.028824
"Binjura","Cooma-Monaro Council","New South Wales",2630,-36.177462,149.109916,-36.136922,149.143859,-36.211862,149.074421
"Binna Burra (NSW)","Byron Shire Council","New South Wales",2479,-28.704188,153.492103,-28.689816,153.515854,-28.732735,153.465619
"Binnaway","Warrumbungle Shire Council","New South Wales",2395,-31.550000,149.383333,-31.428777,149.563259,-31.738073,149.241043
"Binya","","New South Wales",2665,-34.096534,146.291267,-33.959318,146.476618,-34.348377,146.151028
"Birchgrove","Leichhardt Municipal Council","New South Wales",2041,-33.852750,151.180240,-33.845988,151.190568,-33.855537,151.175614
"Birmingham Gardens","Newcastle City Council","New South Wales",2287,-32.893690,151.690335,-32.888525,151.696557,-32.897199,151.681470
"Birrong","Bankstown City Council","New South Wales",2143,-33.893000,151.023000,-33.886095,151.028111,-33.897523,151.013895
"Bishops Bridge","","New South Wales",2326,-32.745509,151.472734,-32.730214,151.513145,-32.764534,151.420032
"Bithramere","Tamworth Regional Council","New South Wales",2340,-31.152572,150.765742,-31.080158,150.822579,-31.188302,150.735427
"Black Head","Greater Taree City Council","New South Wales",2430,-32.070537,152.535552,-32.063326,152.548838,-32.079336,152.521556
"Black Hill (NSW)","","New South Wales",2322,-32.840000,151.612000,-32.800257,151.675459,-32.853264,151.558452
"Black Mountain (NSW)","","New South Wales",2365,-30.315347,151.672069,-30.256755,151.810080,-30.401588,151.568205
"Black Springs (NSW)","Oberon Council","New South Wales",2787,-33.860208,149.736468,-33.780224,149.805887,-33.931853,149.640254
"Blackalls Park","Lake Macquarie City Council","New South Wales",2283,-33.001000,151.587000,-32.989566,151.594896,-33.010168,151.561916
"Blackbutt (NSW)","Shellharbour City Council","New South Wales",2529,-34.571667,150.838333,-34.565399,150.862860,-34.577345,150.822148
"Blackett","Blacktown City Council","New South Wales",2770,-33.739340,150.812660,-33.733338,150.821883,-33.743398,150.808697
"Blackheath (NSW)","Blue Mountains City Council","New South Wales",2785,-33.635556,150.283611,-33.600093,150.333525,-33.678076,150.235302
"Blackmans Point","Port Macquarie-Hastings Council","New South Wales",2444,-31.393959,152.832350,-31.372356,152.854985,-31.408625,152.806556
"Blacksmiths","Lake Macquarie City Council","New South Wales",2281,-33.074000,151.657000,-33.062792,151.664511,-33.090895,151.645680
"Blacktown","Blacktown City Council","New South Wales",2148,-33.771000,150.906300,-33.747655,150.927773,-33.804663,150.878436
"Blackwall (NSW)","Gosford City Council","New South Wales",2256,-33.503000,151.326000,-33.500102,151.346684,-33.509704,151.324400
"Blair Athol (NSW)","Campbelltown City Council","New South Wales",2560,-34.063000,150.800000,-34.056113,150.809508,-34.068019,150.793628
"Blairmount","Campbelltown City Council","New South Wales",2559,-34.048810,150.787340,-34.040487,150.807996,-34.061937,150.781018
"Blakehurst","Kogarah City Council","New South Wales",2221,-33.989830,151.109650,-33.977865,151.120958,-34.003589,151.099841
"Blandford","","New South Wales",2338,-31.786890,150.894740,-31.676790,150.945243,-31.825797,150.843709
"Blaxland (NSW)","Blue Mountains City Council","New South Wales",2774,-33.750000,150.616667,-33.730024,150.644135,-33.762003,150.592234
"Blaxlands Ridge","Hawkesbury City Council","New South Wales",2758,-33.471535,150.796982,-33.432124,150.856245,-33.509113,150.732986
"Blayney","Blayney Shire Council","New South Wales",2799,-33.525572,149.250803,-33.445352,149.337695,-33.629459,149.171417
"Bligh Park","Hawkesbury City Council","New South Wales",2756,-33.638000,150.799000,-33.631497,150.815522,-33.645382,150.785371
"Blighty","Conargo Shire Council","New South Wales",2713,-35.617957,145.334050,-35.527068,145.409164,-35.664869,145.204309
"Blue Bay","Wyong Shire Council","New South Wales",2261,-33.353000,151.501000,-33.350064,151.505314,-33.358728,151.496379
"Blue Haven","Wyong Shire Council","New South Wales",2262,-33.211023,151.504845,-33.204877,151.516689,-33.217977,151.490220
"Blue Knob","Lismore City Council","New South Wales",2480,-28.548855,153.191432,-28.521405,153.219960,-28.576022,153.165590
"Blue Mountains National Park","","New South Wales",,-33.617564,150.455907,0.000000,0.000000,0.000000,0.000000
"Boambee","Coffs Harbour City Council","New South Wales",2450,-30.333333,153.083333,-30.314468,153.089235,-30.351267,153.028174
"Boambee East","Coffs Harbour City Council","New South Wales",2452,-30.350873,153.070689,-30.331211,153.093427,-30.360059,153.064179
"Boat Harbour (Port Stephens - NSW)","Port Stephens Council","New South Wales",2316,-32.784483,152.110421,-32.775561,152.124080,-32.793525,152.099719
"Bobs Farm","Port Stephens Council","New South Wales",2316,-32.776389,151.972500,-32.743439,152.055561,-32.813005,151.945962
"Bodalla","Eurobodalla Shire Council","New South Wales",2545,-36.100000,150.050000,-36.012907,150.136502,-36.181046,149.844910
"Bogan Gate","Parkes Shire Council","New South Wales",2876,-33.112367,147.746664,-32.968503,147.908226,-33.211562,147.622132
"Bogangar","Tweed Shire Council","New South Wales",2488,-28.333333,153.558333,-28.314877,153.574633,-28.349732,153.541303
"Boggabilla","Moree Plains Shire Council","New South Wales",2409,-28.606531,150.357928,-28.537157,150.486248,-28.876344,149.902458
"Boggabri","","New South Wales",2382,-30.700000,150.033333,-30.542440,150.335821,-30.838752,149.773856
"Bolton Point","Lake Macquarie City Council","New South Wales",2283,-33.003000,151.615000,-32.986004,151.618696,-33.006919,151.603326
"Bolwarra (NSW)","Maitland City Council","New South Wales",2320,-32.709238,151.577848,-32.699634,151.587522,-32.721957,151.558536
"Bolwarra Heights","Maitland City Council","New South Wales",2320,-32.700000,151.584722,-32.675913,151.603062,-32.713072,151.568271
"Bomaderry","Shoalhaven City Council","New South Wales",2541,-34.850000,150.616667,-34.831120,150.623324,-34.864136,150.585519
"Bombala","Bombala Council","New South Wales",2632,-36.911523,149.242324,-36.828472,149.332116,-36.951346,149.163206
"Bombira","Mid-Western Regional Council","New South Wales",2850,-32.575224,149.604572,-32.553137,149.618020,-32.590564,149.591443
"Bombo","The Council of the Municipality of Kiama","New South Wales",2533,-34.654666,150.852213,-34.647396,150.865720,-34.662500,150.841041
"Bombowlee","Tumut Council","New South Wales",2720,-35.262889,148.246260,-35.218806,148.271247,-35.305949,148.214962
"Bomen","Wagga Wagga City Council","New South Wales",2650,-35.075000,147.416667,-35.033496,147.468394,-35.088770,147.396158
"Bomera","Warrumbungle Shire Council","New South Wales",2357,-31.485933,149.828748,-31.402768,149.914852,-31.624427,149.642947
"Bonalbo","Kyogle Council","New South Wales",2469,-28.738996,152.623920,-28.657014,152.683376,-28.778326,152.554504
"Bondi","Waverley Council","New South Wales",2026,-33.891475,151.276684,-33.890267,151.282424,-33.894441,151.273739
"Bondi Beach","Waverley Council","New South Wales",2026,-33.891475,151.276684,-33.890267,151.282424,-33.894441,151.273739
"Bondi Junction","Waverley Council","New South Wales",2022,-33.891450,151.249700,-33.888892,151.259729,-33.897093,151.240794
"Bonnells Bay","Lake Macquarie City Council","New South Wales",2264,-33.112139,151.522363,-33.100036,151.544162,-33.119439,151.503423
"Bonnet Bay","Sutherland Shire Council","New South Wales",2226,-34.010250,151.052380,-34.003015,151.061791,-34.017109,151.045661
"Bonny Hills","Port Macquarie-Hastings Council","New South Wales",2445,-31.581667,152.834722,-31.538155,152.848375,-31.610687,152.786996
"Bonnyrigg","Fairfield City Council","New South Wales",2177,-33.898120,150.890060,-33.882552,150.902869,-33.904137,150.874473
"Bonnyrigg Heights","Fairfield City Council","New South Wales",2177,-33.891120,150.872060,-33.883448,150.882822,-33.898654,150.857132
"Bonville","Coffs Harbour City Council","New South Wales",2450,-30.383333,153.050000,-30.333373,153.081990,-30.422512,152.957249
"Booerie Creek","Lismore City Council","New South Wales",2480,-28.781440,153.244462,-28.750821,153.280129,-28.802585,153.226199
"Booker Bay","Gosford City Council","New South Wales",2257,-33.508000,151.346000,-33.506968,151.353033,-33.519951,151.342117
"Bookham","Yass Valley Council","New South Wales",2582,-34.803221,148.632257,-34.761624,148.730852,-34.925471,148.522267
"Boolambayte","Great Lakes Council","New South Wales",2423,-32.396579,152.269993,-32.292419,152.328033,-32.506136,152.222093
"Boolaroo","Lake Macquarie City Council","New South Wales",2284,-32.946844,151.627509,-32.936698,151.637073,-32.956478,151.614656
"Booligal","","New South Wales",2711,-33.878671,144.877541,-33.407590,145.233666,-34.056807,144.132846
"Boomanoomana","Berrigan Shire Council","New South Wales",2712,-35.943624,145.921748,-35.781505,145.947103,-35.991592,145.757235
"Boomerang Beach","Great Lakes Council","New South Wales",2428,-32.338750,152.534084,-32.332848,152.547795,-32.348925,152.520540
"Booragul","Lake Macquarie City Council","New South Wales",2284,-32.974505,151.608519,-32.967171,151.618049,-32.981674,151.603342
"Booral (NSW)","Great Lakes Council","New South Wales",2425,-32.403391,151.966265,-32.267206,152.073840,-32.444829,151.913925
"Boorolong","","New South Wales",2350,-30.285122,151.556309,-30.262425,151.596242,-30.451478,151.321626
"Boorooma","Wagga Wagga City Council","New South Wales",2650,-35.074014,147.365425,-35.065801,147.380897,-35.078673,147.357733
"Boorowa","Boorowa Council","New South Wales",2586,-34.439287,148.722585,-34.151146,148.939400,-34.572022,148.553622
"Bootawa","Greater Taree City Council","New South Wales",2430,-31.923756,152.368251,-31.893997,152.391973,-31.951188,152.321871
"Bora Ridge","Richmond Valley Council","New South Wales",2471,-29.056057,153.175331,-29.024979,153.263337,-29.097968,153.104341
"Borambola","Wagga Wagga City Council","New South Wales",2650,-35.169142,147.654530,-35.090500,147.798770,-35.217614,147.585878
"Boree Creek","","New South Wales",2652,-35.093671,146.639813,-34.911664,146.740374,-35.226748,146.306622
"Borenore","Cabonne Shire Council","New South Wales",2800,-33.250000,148.966667,-33.177716,149.040421,-33.283435,148.865511
"Bossley Park","Fairfield City Council","New South Wales",2176,-33.863410,150.883640,-33.851470,150.897975,-33.872918,150.869936
"Botany","The Council of the City of Botany Bay","New South Wales",2019,-33.945130,151.199340,-33.937217,151.209523,-33.960948,151.186940
"Botany Bay","","New South Wales",,-33.993037,151.175278,-33.947134,151.238569,-34.025987,151.147928
"Bouddi","Gosford City Council","New South Wales",2251,-33.518000,151.400000,-33.500626,151.429606,-33.533033,151.378054
"Bourke","Bourke Shire Council","New South Wales",2840,-30.090661,145.938194,-29.842202,146.471357,-30.542303,145.514141
"Bourkelands","Wagga Wagga City Council","New South Wales",2650,-35.154128,147.351078,-35.147908,147.358773,-35.164478,147.337231
"Bournda","Bega Valley Shire Council","New South Wales",2548,-36.831432,149.900318,-36.752818,149.955660,-36.869977,149.823162
"Bow Bowing","Campbelltown City Council","New South Wales",2566,-34.018530,150.838160,-34.011890,150.847717,-34.022664,150.834985
"Bowan Park","Cabonne Shire Council","New South Wales",2864,-33.299294,148.840774,-33.267285,148.887377,-33.369989,148.784641
"Bowen Mountain","Hawkesbury City Council","New South Wales",2753,-33.574335,150.627783,-33.545657,150.648331,-33.611884,150.597076
"Bowenfels","Lithgow City Council","New South Wales",2790,-33.517897,150.112695,-33.483882,150.146829,-33.554901,150.064777
"Bowman","City of Canning","Western Australia",6155,-32.060589,115.917021,0.000000,0.000000,0.000000,0.000000
"Bowning","Yass Valley Council","New South Wales",2582,-34.760567,148.823950,-34.644402,148.947142,-34.866191,148.679277
"Bowral","Wingecarribee Shire Council","New South Wales",2576,-34.479167,150.418056,-34.452568,150.490815,-34.513284,150.369226
"Bowraville","Nambucca Shire Council","New South Wales",2449,-30.633333,152.850000,-30.606380,152.896691,-30.665203,152.828444
"Box Head","Gosford City Council","New South Wales",2257,-33.531842,151.354690,-33.522586,151.359776,-33.581995,151.307747
"Box Hill (NSW)","The Hills Shire Council","New South Wales",2765,-33.650000,150.880000,-33.615816,150.924181,-33.672627,150.874039
"Boydtown","Bega Valley Shire Council","New South Wales",2551,-37.107335,149.869940,-37.090431,149.913004,-37.119535,149.845341
"Bradbury (NSW)","Campbelltown City Council","New South Wales",2560,-34.087340,150.816260,-34.070753,150.830233,-34.097348,150.804739
"Braemar","Campbelltown City Council","New South Wales",2560,-34.056134,150.806285,0.000000,0.000000,0.000000,0.000000
"Braidwood","Palerang Council","New South Wales",2622,-35.434827,149.802858,-35.335242,149.914579,-35.519729,149.696739
"Brandy Hill","Port Stephens Council","New South Wales",2324,-32.694528,151.693194,-32.672474,151.710972,-32.705222,151.671646
"Branxton","","New South Wales",2335,-32.650000,151.350000,-32.600485,151.397097,-32.682672,151.315892
"Braunstone","Leicester","England",,52.609887,-1.177021,52.622949,-1.164055,52.600935,-1.189081
"Bray Park (NSW)","Tweed Shire Council","New South Wales",2484,-28.340322,153.375619,-28.334499,153.381619,-28.351603,153.369204
"Breadalbane (NSW)","","New South Wales",2581,-34.795120,149.493994,-34.719492,149.508237,-34.876944,149.382286
"Breakfast Creek","Brisbane City","Queensland",4010,-27.440729,153.045616,0.000000,0.000000,0.000000,0.000000
"Breakfast Point","City of Canada Bay Council","New South Wales",2137,-33.844000,151.112900,-33.837801,151.115496,-33.847682,151.106562
"Bream Beach","Shoalhaven City Council","New South Wales",2540,-35.108611,150.661667,-35.104452,150.665338,-35.112716,150.658069
"Bredbo","Cooma-Monaro Council","New South Wales",2626,-35.942039,149.200945,-35.872456,149.330075,-36.045132,149.049697
"Brewarrina","Brewarrina Shire Council","New South Wales",2839,-29.961174,146.860648,-29.640389,147.418730,-30.344594,146.406286
"Brewongle","The Hills Shire Council","New South Wales",2756,-33.481212,150.890965,0.000000,0.000000,0.000000,0.000000
"Bribbaree","","New South Wales",2594,-34.117847,147.869752,-34.025443,148.027875,-34.195606,147.759162
"Bridgman","Singleton Shire Council","New South Wales",2330,-32.463009,151.189920,-32.397373,151.241634,-32.508980,151.134355
"Brierfield","Lancashire","England",,53.821604,-2.236731,53.835001,-2.201093,53.814658,-2.251716
"Brighton-le-Sands","Rockdale City Council","New South Wales",2216,-33.960808,151.156326,-33.950562,151.163209,-33.966887,151.145138
"Brightwaters","Lake Macquarie City Council","New South Wales",2264,-33.112770,151.545723,-33.102677,151.552947,-33.120915,151.533218
"Bringelly","","New South Wales",2556,-33.921780,150.732340,-33.902394,150.758788,-33.989118,150.691666
"Brisbane Grove","Goulburn Mulwaree Council","New South Wales",2580,-34.798080,149.719883,-34.775289,149.755515,-34.817038,149.687026
"Broadmeadow","Newcastle City Council","New South Wales",2292,-32.925176,151.734182,-32.911587,151.745913,-32.933793,151.720538
"Broadwater (Richmond Valley - NSW)","","New South Wales",2472,-28.996499,153.409929,-28.980223,153.485060,-29.091494,153.386891
"Broadway","Council of the City of Sydney","New South Wales",2007,-33.883534,151.194327,0.000000,0.000000,0.000000,0.000000
"Brocklehurst","Dubbo City Council","New South Wales",2830,-32.118482,148.591854,-32.079210,148.658718,-32.196147,148.536102
"Brocklesby","Greater Hume Shire Council","New South Wales",2642,-35.773673,146.653139,-35.729543,146.749470,-35.897473,146.571950
"Brogo","Bega Valley Shire Council","New South Wales",2550,-36.511553,149.767479,-36.340993,149.869391,-36.611499,149.510615
"Broke (NSW)","Singleton Shire Council","New South Wales",2330,-32.744349,151.089550,-32.688623,151.224971,-32.846793,151.001453
"Broken Head","","New South Wales",2481,-28.726458,153.598317,-28.695886,153.619347,-28.764317,153.564640
"Broken Hill","","New South Wales",2880,-31.953913,141.453940,-31.591872,142.252931,-33.113560,141.001349
"Bronte","Waverley Council","New South Wales",2024,-33.905320,151.260690,-33.897394,151.270694,-33.911107,151.256612
"Brookdale (NSW)","Wagga Wagga City Council","New South Wales",2656,-35.148352,146.942553,-35.030012,147.094531,-35.187828,146.929603
"Brookfield (NSW)","Dungog Shire Council","New South Wales",2420,-32.509481,151.759033,-32.475185,151.797396,-32.550334,151.711903
"Brooklet","Ballina Shire Council","New South Wales",2479,-28.731390,153.515000,-28.721041,153.529286,-28.771763,153.479053
"Brooklyn (NSW)","The Council of the Shire of Hornsby","New South Wales",2083,-33.548359,151.214980,-33.535129,151.284782,-33.627995,151.159907
"Brookvale","Warringah Council","New South Wales",2100,-33.765300,151.270410,-33.754371,151.280646,-33.771010,151.258019
"Brooms Head","Clarence Valley Council","New South Wales",2463,-29.643000,153.307452,-29.564160,153.342881,-29.667655,153.235241
"Broughton Vale","Shoalhaven City Council","New South Wales",2535,-34.732712,150.715627,-34.707366,150.736928,-34.766920,150.674334
"Broulee","Eurobodalla Shire Council","New South Wales",2537,-35.845428,150.169417,-35.827623,150.192115,-35.884085,150.119543
"Brownlow Hill","Wollondilly Shire Council","New South Wales",2570,-34.034800,150.657000,-34.021018,150.672278,-34.071859,150.633271
"Brownsville","Cameron County","Texas",,25.901747,-97.497484,26.217514,-97.273640,25.840258,-97.644552
"Brungle","Tumut Council","New South Wales",2722,-35.144388,148.228810,-35.110415,148.262903,-35.190835,148.187805
"Brunswick Heads","Byron Shire Council","New South Wales",2483,-28.555792,153.543639,-28.531299,153.564004,-28.583786,153.525233
"Brushgrove","Clarence Valley Council","New South Wales",2460,-29.565278,153.084722,-29.551789,153.101791,-29.568324,153.072315
"Bucca (NSW)","Coffs Harbour City Council","New South Wales",2450,-30.127184,153.085410,-30.092837,153.138802,-30.239992,153.041910
"Buckajo","Bega Valley Shire Council","New South Wales",2550,-36.693253,149.801709,-36.646151,149.825195,-36.737585,149.685901
"Budgee Budgee (NSW)","Mid-Western Regional Council","New South Wales",2850,-32.515133,149.667980,-32.480455,149.704350,-32.547202,149.632587
"Budgewoi","Wyong Shire Council","New South Wales",2262,-33.234000,151.557000,-33.226021,151.576685,-33.259481,151.541201
"Budgewoi Peninsula","Wyong Shire Council","New South Wales",2262,-33.217778,151.585405,-33.207223,151.602004,-33.231908,151.571395
"Buff Point","Wyong Shire Council","New South Wales",2262,-33.232000,151.535000,-33.216058,151.546538,-33.239411,151.526526
"Bugaldie","Warrumbungle Shire Council","New South Wales",2357,-31.153800,149.152666,-31.041846,149.258212,-31.274012,149.020217
"Bukkulla","Inverell Shire Council","New South Wales",2360,-29.598814,151.154156,-29.401396,151.215567,-29.629814,150.996256
"Bulahdelah","Great Lakes Council","New South Wales",2423,-32.404240,152.209315,-32.277766,152.259731,-32.487355,152.067376
"Bulga (NSW)","Singleton Shire Council","New South Wales",2330,-32.649658,151.010751,-32.583568,151.080921,-32.689356,150.887558
"Bullaburra","Blue Mountains City Council","New South Wales",2784,-33.725833,150.412778,-33.708510,150.442590,-33.747073,150.396434
"Bulli","Wollongong City Council","New South Wales",2516,-34.334167,150.913333,-34.311064,150.930060,-34.342612,150.876798
"Bundabah","Great Lakes Council","New South Wales",2324,-32.678734,152.060455,-32.657761,152.077138,-32.683741,152.050336
"Bundaburrah","Forbes Shire Council","New South Wales",2871,-33.485010,147.786732,-33.482052,147.791057,-33.488971,147.781168
"Bundagen","Coffs Harbour City Council","New South Wales",2454,-30.401219,153.062952,-30.375002,153.099459,-30.449145,153.023564
"Bundanoon (NSW)","Wingecarribee Shire Council","New South Wales",2578,-34.666083,150.283770,-34.632612,150.351048,-34.710371,150.222182
"Bundarra","Brisbane City","Queensland",4170,-27.455868,153.079161,0.000000,0.000000,0.000000,0.000000
"Bundeena","Sutherland Shire Council","New South Wales",2230,-34.083416,151.151547,-34.074805,151.160504,-34.095023,151.140572
"Bundook","","New South Wales",2422,-31.895310,152.119244,-31.857168,152.154761,-31.934865,152.020065
"Bungarby","Bombala Council","New South Wales",2630,-36.698378,149.006805,-36.559148,149.153448,-36.811629,148.938292
"Bungendore","Palerang Council","New South Wales",2621,-35.250000,149.450000,-35.190947,149.577977,-35.401101,149.365284
"Bunglegumbie","Dubbo City Council","New South Wales",2830,-32.224271,148.592670,-32.186418,148.600100,-32.245361,148.531530
"Bungonia","Goulburn Mulwaree Council","New South Wales",2580,-34.850000,149.950000,-34.789826,150.091803,-34.967192,149.829055
"Bungowannah","Greater Hume Shire Council","New South Wales",2640,-35.995196,146.761569,-35.931851,146.837071,-36.065272,146.698085
"Bungwahl","Great Lakes Council","New South Wales",2423,-32.374822,152.415198,-32.308004,152.490208,-32.426049,152.353531
"Bunnan","Upper Hunter Shire Council","New South Wales",2337,-32.106671,150.563568,-31.973610,150.676615,-32.141828,150.497358
"Bunyan","Cooma-Monaro Council","New South Wales",2630,-36.162339,149.138634,-36.105447,149.248923,-36.191232,149.099651
"Burnt Bridge","Maroondah City","Victoria",3134,-37.796065,145.254754,0.000000,0.000000,0.000000,0.000000
"Buronga","Wentworth Shire Council","New South Wales",2739,-34.162820,142.196540,-34.129667,142.212829,-34.184041,142.159533
"Burra (Palerang - NSW)","","New South Wales",2620,-35.550000,149.216667,-35.486380,149.282493,-35.645332,149.177388
"Burradoo","Wingecarribee Shire Council","New South Wales",2576,-34.508494,150.402247,-34.488860,150.437502,-34.534319,150.385723
"Burraga","Oberon Council","New South Wales",2795,-33.897385,149.513711,-33.848179,149.612960,-33.962986,149.456785
"Burragate","Bega Valley Shire Council","New South Wales",2550,-37.009570,149.626637,-36.959238,149.705390,-37.045553,149.576629
"Burraneer","Sutherland Shire Council","New South Wales",2230,-34.069960,151.136640,-34.050224,151.144864,-34.077399,151.130353
"Burrangong","Young Shire Council","New South Wales",2594,-34.289109,148.246260,-34.253492,148.276786,-34.325323,148.225842
"Burrawang","Wingecarribee Shire Council","New South Wales",2577,-34.600000,150.516667,-34.551696,150.545260,-34.604857,150.477201
"Burrell Creek","Greater Taree City Council","New South Wales",2429,-31.949155,152.297852,-31.915968,152.340478,-31.983332,152.261885
"Burren Junction","","New South Wales",2386,-30.100463,148.964698,-29.820021,149.094301,-30.268809,148.639119
"Burrill Lake","Shoalhaven City Council","New South Wales",2539,-35.383333,150.450000,-35.377388,150.461039,-35.409703,150.424182
"Burringbar","Tweed Shire Council","New South Wales",2483,-28.417946,153.468506,-28.382348,153.489553,-28.468329,153.438527
"Burroway","Narromine Shire Council","New South Wales",2821,-32.110625,148.331052,-31.904505,148.456897,-32.187279,148.212804
"Burrumbuttock","Greater Hume Shire Council","New South Wales",2642,-35.837683,146.805115,-35.740461,146.876326,-35.916102,146.709822
"Burrundulla","Mid-Western Regional Council","New South Wales",2850,-32.622367,149.627626,-32.599687,149.672778,-32.663635,149.598882
"Burwood (NSW)","Burwood Council","New South Wales",2134,-33.877200,151.104900,-33.868432,151.112737,-33.888353,151.095502
"Burwood Heights","Burwood Council","New South Wales",2136,-33.890200,151.105200,-33.886675,151.107222,-33.892122,151.100825
"Busby","Liverpool City Council","New South Wales",2168,-33.914130,150.882470,-33.903768,150.887310,-33.919377,150.874600
"Buttaba","Lake Macquarie City Council","New South Wales",2283,-33.051000,151.585000,-33.041276,151.586325,-33.058453,151.564297
"Buxton (NSW)","","New South Wales",2571,-34.256576,150.533484,-34.236665,150.570120,-34.275058,150.507578
"Byabarra","Port Macquarie-Hastings Council","New South Wales",2446,-31.530700,152.556551,-31.471983,152.637493,-31.596375,152.476368
"Byangum","Tweed Shire Council","New South Wales",2484,-28.350000,153.366667,-28.342993,153.382878,-28.372881,153.342327
"Byron Bay","Byron Shire Council","New South Wales",2481,-28.647367,153.601977,-28.614380,153.638832,-28.679357,153.566961
"Byrrill Creek","Tweed Shire Council","New South Wales",2484,-28.436946,153.246672,-28.418563,153.283091,-28.461539,153.195213
"Bywong","","New South Wales",2621,-35.179961,149.310994,-35.122118,149.405179,-35.225540,149.252358
"Cabarita (NSW)","City of Canada Bay Council","New South Wales",2137,-33.848020,151.114850,-33.841338,151.120758,-33.853548,151.111237
"Cabbage Tree Island (Ballina - NSW)","Ballina Shire Council","New South Wales",2477,-28.980764,153.456718,-28.972852,153.459876,-28.987340,153.453364
"Cabramatta","Fairfield City Council","New South Wales",2166,-33.894444,150.937500,-33.888291,150.959513,-33.908286,150.912425
"Cabramatta West","Fairfield City Council","New South Wales",2166,-33.894700,150.915000,-33.886391,150.923008,-33.899643,150.899492
"Cabramurra","","New South Wales",2629,-35.936966,148.384630,-35.759309,148.570082,-36.105730,148.325214
"Caffreys Flat","Greater Taree City Council","New South Wales",2424,-31.806674,152.071553,-31.730488,152.110850,-31.841582,152.014373
"Calala","Tamworth Regional Council","New South Wales",2340,-31.133333,150.950000,-31.113873,151.035852,-31.209260,150.919461
"Calarie","Forbes Shire Council","New South Wales",2871,-33.333502,147.994975,0.000000,0.000000,0.000000,0.000000
"Calderwood","Shellharbour City Council","New South Wales",2527,-34.555430,150.724341,-34.543260,150.777819,-34.568070,150.678111
"Calimo","Murray Shire Council","New South Wales",2710,-35.490828,144.642381,-35.286233,144.713649,-35.523940,144.457872
"Callaghan","Newcastle City Council","New South Wales",2308,-32.890000,151.701000,-32.883159,151.713853,-32.897486,151.694962
"Callala Bay","Shoalhaven City Council","New South Wales",2540,-34.990772,150.719641,-34.977447,150.739367,-35.010504,150.701868
"Callala Beach","Shoalhaven City Council","New South Wales",2540,-35.002327,150.695294,-34.989754,150.717921,-35.016897,150.684919
"Calliope (NSW)","Clarence Valley Council","New South Wales",2462,-29.617316,153.079521,-29.589126,153.101076,-29.639237,153.047781
"Camberwell (NSW)","Singleton Shire Council","New South Wales",2330,-32.480687,151.091285,-32.457696,151.128237,-32.519437,151.049925
"Cambewarra","Shoalhaven City Council","New South Wales",2540,-34.804000,150.564656,-34.789696,150.588273,-34.840243,150.528732
"Cambewarra Village","Shoalhaven City Council","New South Wales",2540,-34.822581,150.558961,-34.815308,150.564534,-34.830138,150.554144
"Cambridge Gardens","Penrith City Council","New South Wales",2747,-33.738000,150.721000,-33.732518,150.725523,-33.743672,150.715913
"Cambridge Park","Penrith City Council","New South Wales",2747,-33.748333,150.734444,-33.742120,150.738667,-33.757154,150.714490
"Camden","Camden Council","New South Wales",2570,-34.054444,150.695833,-34.041216,150.705915,-34.076100,150.681526
"Camden Head","Port Macquarie-Hastings Council","New South Wales",2443,-31.644092,152.829409,-31.635661,152.849534,-31.649593,152.815485
"Camden Park (NSW)","Wollondilly Shire Council","New South Wales",2570,-34.096451,150.699903,-34.076954,150.742145,-34.112232,150.694607
"Camden South","Camden Council","New South Wales",2570,-34.085390,150.707440,-34.071197,150.715590,-34.093385,150.685643
"Cameron Park","Lake Macquarie City Council","New South Wales",2285,-32.905000,151.609000,-32.879948,151.640838,-32.921741,151.585802
"Cammeray","North Sydney Council","New South Wales",2062,-33.823060,151.219630,-33.815751,151.225971,-33.829791,151.204577
"Campbelltown (NSW)","Campbelltown City Council","New South Wales",2560,-34.065000,150.814167,-34.046156,150.837977,-34.082570,150.771690
"Camperdown (NSW)","","New South Wales",2050,-33.890130,151.179880,-33.882704,151.194693,-33.894618,151.171545
"Campsie","Canterbury City Council","New South Wales",2194,-33.914610,151.101830,-33.901759,151.115678,-33.926985,151.091113
"Canada Bay","City of Canada Bay Council","New South Wales",2046,-33.867100,151.113900,-33.860491,151.118010,-33.868812,151.112114
"Candelo","Bega Valley Shire Council","New South Wales",2550,-36.765462,149.690325,-36.731570,149.742833,-36.835788,149.592421
"Cangai","Clarence Valley Council","New South Wales",2460,-29.500681,152.455919,-29.391728,152.523487,-29.558763,152.384280
"Caniaba","Lismore City Council","New South Wales",2480,-28.827849,153.209107,-28.804971,153.255327,-28.862937,153.171594
"Canley Heights","Fairfield City Council","New South Wales",2166,-33.885020,150.927600,-33.874285,150.935897,-33.889725,150.909370
"Canley Vale","Fairfield City Council","New South Wales",2166,-33.886420,150.946000,-33.876148,150.967148,-33.893761,150.933771
"Canobolas","","New South Wales",2800,-33.348352,148.977958,-33.290003,149.078886,-33.423696,148.945440
"Canoelands","The Council of the Shire of Hornsby","New South Wales",2157,-33.508240,151.061780,-33.460487,151.162779,-33.540114,151.011088
"Canowindra","","New South Wales",2804,-33.566667,148.666667,-33.372099,148.845464,-33.695485,148.436564
"Canterbury (NSW)","Canterbury City Council","New South Wales",2193,-33.912600,151.118000,-33.902580,151.125962,-33.923378,151.108228
"Canton Beach","Wyong Shire Council","New South Wales",2263,-33.277001,151.547183,-33.267463,151.551687,-33.282897,151.538136
"Canyonleigh","Wingecarribee Shire Council","New South Wales",2577,-34.535158,150.132944,-34.367546,150.237300,-34.614818,150.045463
"Capertee","Lithgow City Council","New South Wales",2846,-33.146521,149.985395,-33.027540,150.128068,-33.211283,149.898065
"Captains Flat","Palerang Council","New South Wales",2623,-35.599127,149.472889,-35.504765,149.518232,-35.638969,149.330773
"Caragabal","Weddin Shire Council","New South Wales",2810,-33.835849,147.743651,-33.703507,147.863734,-33.937968,147.507042
"Carcoar","Blayney Shire Council","New South Wales",2791,-33.614370,149.141477,-33.554396,149.224875,-33.683573,149.047088
"Cardiff (NSW)","Lake Macquarie City Council","New South Wales",2285,-32.939950,151.662572,-32.929795,151.677619,-32.956211,151.635920
"Cardiff Heights","Lake Macquarie City Council","New South Wales",2285,-32.936713,151.675722,-32.923578,151.686317,-32.939698,151.662699
"Cardiff South","Lake Macquarie City Council","New South Wales",2285,-32.953000,151.662000,-32.944943,151.672832,-32.962510,151.655314
"Carey Bay","Lake Macquarie City Council","New South Wales",2283,-33.026339,151.606328,-33.020581,151.610128,-33.031966,151.600619
"Cargo","","New South Wales",2000,-33.868716,151.201849,0.000000,0.000000,0.000000,0.000000
"Carinda","","New South Wales",2831,-30.407418,147.665511,-30.115531,148.058879,-30.649389,147.165055
"Caringbah","Sutherland Shire Council","New South Wales",2229,-34.045200,151.121800,-34.023560,151.145238,-34.047769,151.112196
"Caringbah South","Sutherland Shire Council","New South Wales",2229,-34.052929,151.119931,-34.041603,151.136606,-34.066088,151.102557
"Carlingford","","New South Wales",2118,-33.777000,151.048000,-33.758465,151.068076,-33.791718,151.021205
"Carlton (NSW)","","New South Wales",2218,-33.968530,151.124606,-33.959892,151.131071,-33.981578,151.111966
"Carool","Tweed Shire Council","New South Wales",2486,-28.233333,153.416667,-28.209501,153.446737,-28.238526,153.404173
"Caroona","","New South Wales",2343,-31.401594,150.430148,-31.286926,150.519272,-31.482363,150.317874
"Carramar (NSW)","Fairfield City Council","New South Wales",2163,-33.886050,150.964420,-33.877354,150.969523,-33.890746,150.958037
"Carrathool","Carrathool Shire Council","New South Wales",,-33.601742,145.668964,-32.671254,146.492809,-34.579948,144.357739
"Carrington (Newcastle - NSW)","Newcastle City Council","New South Wales",2294,-32.915000,151.768000,-32.902596,151.776928,-32.923605,151.759069
"Carroll","Holroyd City Council","New South Wales",2145,-33.821268,150.920039,0.000000,0.000000,0.000000,0.000000
"Carrs Creek","Clarence Valley Council","New South Wales",2460,-29.658833,152.926476,-29.642854,152.942036,-29.668618,152.906955
"Carss Park","Kogarah City Council","New South Wales",2221,-33.987180,151.118890,-33.981578,151.124610,-33.994804,151.112057
"Cartwright","Liverpool City Council","New South Wales",2168,-33.924078,150.891469,-33.921179,150.900870,-33.927893,150.873659
"Cartwrights Hill","Wagga Wagga City Council","New South Wales",2650,-35.069753,147.389575,-35.066183,147.402550,-35.083739,147.379567
"Carwoola","","New South Wales",2620,-35.365331,149.337142,-35.333002,149.393501,-35.429234,149.249413
"Casino","Brisbane City","Queensland",4000,-27.471684,153.023610,0.000000,0.000000,0.000000,0.000000
"Cassilis (NSW)","","New South Wales",2329,-32.016907,150.013662,-31.746135,150.218282,-32.206686,149.798513
"Castle Cove","Willoughby City Council","New South Wales",2069,-33.784640,151.206420,-33.778568,151.232941,-33.793344,151.196578
"Castle Doyle","Armidale Dumaresq Council","New South Wales",2350,-30.581169,151.749841,-30.563927,151.850101,-30.688053,151.722339
"Castle Hill (NSW)","","New South Wales",2154,-33.729250,151.004020,-33.703398,151.031894,-33.757051,150.963451
"Castle Rock","Shire of Plantagenet","Western Australia",6324,-34.688056,117.933333,0.000000,0.000000,0.000000,0.000000
"Castlecrag","Willoughby City Council","New South Wales",2068,-33.801370,151.220070,-33.794577,151.230876,-33.806123,151.209121
"Castlereagh","Penrith City Council","New South Wales",2749,-33.671900,150.678400,-33.640728,150.709153,-33.733812,150.653332
"Casuarina (NSW)","Tweed Shire Council","New South Wales",2487,-28.288700,153.573900,-28.286742,153.578346,-28.317842,153.564266
"Casula","Liverpool City Council","New South Wales",2170,-33.951930,150.905380,-33.937523,150.918951,-33.966788,150.874687
"Catalina","","New South Wales",2029,-33.870446,151.262853,0.000000,0.000000,0.000000,0.000000
"Catherine Field","Camden Council","New South Wales",2557,-33.983300,150.760000,-33.954477,150.789397,-34.017890,150.751773
"Catherine Hill Bay","Lake Macquarie City Council","New South Wales",2281,-33.148000,151.618000,-33.130273,151.644634,-33.169533,151.609310
"Cattai","","New South Wales",2756,-33.556100,150.912050,-33.509982,150.946815,-33.574470,150.888557
"Caves Beach","Lake Macquarie City Council","New South Wales",2281,-33.106342,151.645039,-33.096659,151.656355,-33.121663,151.634962
"Cawdor (NSW)","","New South Wales",2570,-34.083333,150.683333,-34.061603,150.699003,-34.130217,150.633756
"Cawongla","Kyogle Council","New South Wales",2474,-28.600000,153.100000,-28.571417,153.136270,-28.637279,153.053875
"Cecil Hills","Liverpool City Council","New South Wales",2171,-33.890278,150.851111,-33.874691,150.864633,-33.900254,150.823892
"Cecil Park","","New South Wales",2178,-33.872970,150.838230,-33.852716,150.853667,-33.911389,150.796420
"Cedar Party","Greater Taree City Council","New South Wales",2429,-31.818755,152.368251,-31.777396,152.430881,-31.848627,152.341649
"Centennial Park (NSW)","","New South Wales",2021,-33.901080,151.230360,-33.889491,151.242358,-33.906062,151.222816
"Central Mangrove","","New South Wales",2250,-33.299000,151.235000,-33.256884,151.284069,-33.313005,151.219396
"Central Tilba","Eurobodalla Shire Council","New South Wales",2546,-36.290779,150.060639,-36.261227,150.125098,-36.347830,150.029077
"Cessnock","Cessnock City Council","New South Wales",2325,-32.834510,151.362427,-32.796525,151.414368,-32.870431,151.319831
"Chain Valley Bay","Wyong Shire Council","New South Wales",2259,-33.169000,151.575000,-33.147526,151.587953,-33.180965,151.557990
"Charbon","Mid-Western Regional Council","New South Wales",2848,-32.884997,149.971035,-32.869745,149.982656,-32.901979,149.958396
"Charles Sturt University","Auburn City Council","New South Wales",2127,-33.846879,151.074157,0.000000,0.000000,0.000000,0.000000
"Charlestown (NSW)","Lake Macquarie City Council","New South Wales",2290,-32.965000,151.685000,-32.951277,151.712955,-32.985202,151.676041
"Charmhaven","Wyong Shire Council","New South Wales",2263,-33.226898,151.496087,-33.207980,151.513487,-33.244099,151.473461
"Chatswood","Willoughby City Council","New South Wales",2067,-33.800770,151.179600,-33.784493,151.203181,-33.807034,151.159097
"Chatswood West","","New South Wales",2067,-33.796674,151.162168,-33.791307,151.167755,-33.800467,151.153399
"Chatsworth (NSW)","Clarence Valley Council","New South Wales",2469,-29.384630,153.244462,-29.366319,153.277863,-29.412337,153.217888
"Cheltenham (NSW)","The Council of the Shire of Hornsby","New South Wales",2119,-33.758390,151.075690,-33.749102,151.088863,-33.764605,151.065429
"Cherrybrook","The Council of the Shire of Hornsby","New South Wales",2126,-33.725100,151.049310,-33.703754,151.067101,-33.739732,151.024994
"Chester Hill","","New South Wales",2162,-33.878380,151.004430,-33.863986,151.014621,-33.895901,150.981190
"Chifley (NSW)","Randwick City Council","New South Wales",2036,-33.969000,151.240000,-33.962002,151.246356,-33.978877,151.233068
"Chilcotts Grass","Lismore City Council","New South Wales",2480,-28.831778,153.341717,-28.827144,153.355068,-28.838920,153.330274
"Chillingham","Tweed Shire Council","New South Wales",2484,-28.315934,153.291611,-28.292318,153.300451,-28.331865,153.264143
"Chinderah","Tweed Shire Council","New South Wales",2487,-28.237800,153.561300,-28.225376,153.568786,-28.273516,153.507722
"Chippendale","Council of the City of Sydney","New South Wales",2008,-33.886300,151.199900,-33.883463,151.206808,-33.889113,151.193171
"Chipping Norton","Liverpool City Council","New South Wales",2170,-33.911000,150.959000,-33.898762,150.979139,-33.931113,150.934337
"Chisholm (NSW)","Maitland City Council","New South Wales",2322,-32.754717,151.636274,-32.738674,151.660544,-32.767701,151.622530
"Chiswick","City of Canada Bay Council","New South Wales",2046,-33.851920,151.136050,-33.845618,151.143695,-33.853937,151.131849
"Chittaway Bay","Wyong Shire Council","New South Wales",2261,-33.327393,151.439170,-33.322878,151.463222,-33.330640,151.427845
"Chittaway Point","Wyong Shire Council","New South Wales",2261,-33.321124,151.445007,-33.315326,151.468520,-33.329320,151.427724
"Church Point","Pittwater Council","New South Wales",2105,-33.654400,151.279100,-33.644206,151.290649,-33.660234,151.267173
"Clandulla","Mid-Western Regional Council","New South Wales",2848,-32.917761,149.956094,-32.880173,150.008882,-32.980306,149.906482
"Claremont Meadows","Penrith City Council","New South Wales",2747,-33.779000,150.753000,-33.765170,150.766583,-33.783414,150.739482
"Clarence","Lithgow City Council","New South Wales",2790,-33.482099,150.224377,-33.445032,150.254414,-33.496359,150.178063
"Clarence Town","Dungog Shire Council","New South Wales",2321,-32.585028,151.777750,-32.533578,151.874474,-32.650963,151.683278
"Clarendon (NSW)","Hawkesbury City Council","New South Wales",2756,-33.611700,150.787070,-33.590009,150.804662,-33.631108,150.774528
"Clarenza","Clarence Valley Council","New South Wales",2460,-29.713125,153.002985,-29.653278,153.063044,-29.745819,152.944078
"Claymore","Campbelltown City Council","New South Wales",2559,-34.044400,150.809600,-34.041020,150.821195,-34.053237,150.802551
"Clemton Park","Canterbury City Council","New South Wales",2206,-33.925827,151.104641,-33.922724,151.108245,-33.928813,151.097701
"Cliftleigh","","New South Wales",2321,-32.790005,151.516523,-32.774614,151.530441,-32.802162,151.505465
"Clifton Grove","","New South Wales",2800,-33.242756,149.184564,-33.203700,149.240772,-33.278221,149.129522
"Clontarf (NSW)","Manly Council","New South Wales",2093,-33.808340,151.253420,-33.797946,151.263806,-33.818035,151.249793
"Clothiers Creek","Tweed Shire Council","New South Wales",2484,-28.333333,153.500000,-28.318955,153.528209,-28.349442,153.464463
"Clovelly","Randwick City Council","New South Wales",2031,-33.912100,151.262900,-33.906632,151.271929,-33.916619,151.254120
"Clunes (NSW)","","New South Wales",2480,-28.733333,153.400000,-28.698966,153.445959,-28.752162,153.376914
"Clybucca","Kempsey Shire Council","New South Wales",2440,-30.948301,152.959187,-30.865081,153.004078,-30.989033,152.878453
"Clyde (NSW)","Parramatta City Council","New South Wales",2142,-33.832595,151.022393,-33.829434,151.030078,-33.837189,151.015343
"Coal Point","Lake Macquarie City Council","New South Wales",2283,-33.037000,151.610000,-33.028799,151.619642,-33.050937,151.600235
"Coalcliff","Wollongong City Council","New South Wales",2508,-34.245726,150.972919,-34.236438,150.986088,-34.253638,150.961477
"Cobaki","Tweed Shire Council","New South Wales",2486,-28.206342,153.453760,-28.187584,153.479428,-28.222881,153.430831
"Cobar","Cobar Shire Council","New South Wales",2835,-31.494930,145.840171,-31.141606,146.196177,-31.827026,145.392594
"Cobargo","Bega Valley Shire Council","New South Wales",2550,-36.386570,149.901797,-36.345468,149.979411,-36.443948,149.797303
"Cobbitty","Camden Council","New South Wales",2570,-34.016667,150.683333,-33.944962,150.732124,-34.050989,150.627875
"Coffee Camp","Lismore City Council","New South Wales",2480,-28.646902,153.220891,-28.613921,153.248576,-28.677018,153.188376
"Coffs Harbour","Coffs Harbour City Council","New South Wales",2450,-30.298612,153.109392,-30.261616,153.154835,-30.355176,153.059860
"Coleambally","","New South Wales",2707,-34.805386,145.882762,-34.546735,146.211315,-35.057920,145.483685
"Colebee","Blacktown City Council","New South Wales",2761,-33.721000,150.855000,-33.715930,150.872637,-33.733463,150.844118
"Coledale","Wollongong City Council","New South Wales",2515,-34.283333,150.950000,-34.278796,150.953345,-34.297937,150.929885
"Collarenebri","","New South Wales",2833,-29.546159,148.585084,-28.999051,148.986136,-29.850798,148.098875
"Collaroy (NSW)","Warringah Council","New South Wales",2097,-33.730000,151.300000,-33.724171,151.317479,-33.746923,151.289310
"Collector","","New South Wales",2581,-34.918720,149.428200,-34.860915,149.473152,-35.025672,149.369366
"Collendina","Corowa Shire Council","New South Wales",2646,-36.024082,146.220644,-35.895066,146.320602,-36.047810,146.130924
"Collie (NSW)","","New South Wales",2827,-31.675257,148.285085,-31.558794,148.501102,-31.827716,148.077398
"Collingullie","Wagga Wagga City Council","New South Wales",2650,-35.088611,147.128889,-35.007365,147.186104,-35.180841,146.996634
"Collombatti","Kempsey Shire Council","New South Wales",2440,-31.001889,152.836761,-30.861853,152.916547,-31.048900,152.702915
"Colo Heights","Hawkesbury City Council","New South Wales",2756,-33.369000,150.722000,-33.155894,150.874828,-33.424123,150.523662
"Colo Vale","Wingecarribee Shire Council","New South Wales",2575,-34.400000,150.483333,-34.311665,150.526394,-34.432922,150.385945
"Colongra","Wyong Shire Council","New South Wales",2262,-33.207000,151.543000,-33.190106,151.562482,-33.228426,151.526256
"Colyton","Penrith City Council","New South Wales",2760,-33.782000,150.798000,-33.773187,150.811913,-33.791283,150.782316
"Comberton","Cambridgeshire","England",CB23,52.185417,0.020556,52.216506,0.043177,52.171157,0.006354
"Comboyne","","New South Wales",2429,-31.605867,152.468350,-31.527778,152.528036,-31.665527,152.414870
"Come By Chance","Walgett Shire Council","New South Wales",2832,-30.261653,148.344128,-30.143645,148.640150,-30.565227,148.230978
"Como (NSW)","Sutherland Shire Council","New South Wales",2226,-34.004500,151.063790,-33.993532,151.073824,-34.009469,151.054273
"Comobella","Wellington Council","New South Wales",2820,-32.400745,148.964698,-32.291740,149.035926,-32.453873,148.903169
"Conargo","Conargo Shire Council","New South Wales",2710,-35.306024,145.173860,-35.093684,145.405204,-35.403545,144.936562
"Concord","City of Canada Bay Council","New South Wales",2137,-33.859850,151.101910,-33.841809,151.121836,-33.869683,151.091690
"Concord West","City of Canada Bay Council","New South Wales",2138,-33.844160,151.090210,-33.830697,151.102504,-33.856238,151.081315
"Condell Park","Bankstown City Council","New South Wales",2200,-33.924980,151.007690,-33.915770,151.023550,-33.935823,150.996564
"Condobolin","Lachlan Shire Council","New South Wales",2877,-33.085833,147.147701,-32.360378,147.407257,-33.450113,146.527364
"Condong","Tweed Shire Council","New South Wales",2484,-28.316667,153.433333,-28.297558,153.451777,-28.331517,153.431394
"Congarinni","Nambucca Shire Council","New South Wales",2447,-30.770037,152.861760,-30.719677,152.911462,-30.786894,152.836181
"Congarinni North","Nambucca Shire Council","New South Wales",2447,-30.690304,152.885290,-30.651350,152.923447,-30.719677,152.839626
"Congewai","Cessnock City Council","New South Wales",2325,-32.978373,151.286031,-32.906791,151.364026,-33.015460,151.237781
"Congo","","",,-4.038333,21.758664,5.392003,31.314612,-13.459035,12.145400
"Coniston","Wollongong City Council","New South Wales",2500,-34.438339,150.882744,-34.430926,150.890006,-34.443876,150.874932
"Conjola Park","Shoalhaven City Council","New South Wales",2539,-35.266209,150.439933,-35.252778,150.453851,-35.274090,150.429941
"Connells Point","Kogarah City Council","New South Wales",2221,-33.982460,151.100160,-33.977813,151.102514,-33.995801,151.084865
"Constitution Hill","Parramatta City Council","New South Wales",2145,-33.794500,150.976500,-33.786753,150.983653,-33.799501,150.966705
"Coogee (NSW)","Randwick City Council","New South Wales",2034,-33.919000,151.255500,-33.910800,151.263209,-33.928506,151.246693
"Cookamidgera","","New South Wales",2870,-33.237650,148.339607,-33.148077,148.384335,-33.326129,148.225337
"Cookardinia","Greater Hume Shire Council","New South Wales",2650,-35.576152,147.254337,-35.469459,147.347396,-35.658977,147.154284
"Cooks Gap","Mid-Western Regional Council","New South Wales",2850,-32.362994,149.714115,-32.309228,149.752297,-32.408870,149.682357
"Cooks Hill","Newcastle City Council","New South Wales",2300,-32.933800,151.769600,-32.928781,151.775036,-32.938532,151.761235
"Cooks Myalls","Parkes Shire Council","New South Wales",2870,-33.057996,148.045934,-32.931236,148.070333,-33.096865,147.896746
"Coolac","","New South Wales",2722,-34.892326,148.221333,-34.773058,148.322735,-35.021496,148.080698
"Coolagolite","Bega Valley Shire Council","New South Wales",2550,-36.402317,149.977719,-36.379956,150.031822,-36.500066,149.910824
"Coolah","Warrumbungle Shire Council","New South Wales",2843,-31.844224,149.683117,-31.557389,150.110638,-32.011785,149.474254
"Coolamon","Coolamon Shire Council","New South Wales",2701,-34.819524,147.200542,-34.685295,147.307188,-34.902848,147.090079
"Coolangatta (NSW)","Shoalhaven City Council","New South Wales",2535,-34.854786,150.714174,-34.827202,150.738759,-34.864227,150.683517
"Coolongolook","Great Lakes Council","New South Wales",2423,-32.212268,152.319267,-32.152788,152.401232,-32.285995,152.235879
"Cooma (NSW)","","New South Wales",2630,-36.226866,149.129788,-36.188719,149.178049,-36.307680,149.047257
"Coomba Bay","Great Lakes Council","New South Wales",2428,-32.258653,152.432806,-32.249923,152.460951,-32.289817,152.418477
"Coomba Park","Great Lakes Council","New South Wales",2428,-32.239933,152.453350,-32.211520,152.478439,-32.259506,152.434155
"Coomealla","Wentworth Shire Council","New South Wales",2717,-34.097492,142.052002,-34.041003,142.173100,-34.141704,141.997235
"Coonabarabran","Warrumbungle Shire Council","New South Wales",2357,-31.273343,149.219061,-31.188254,149.372692,-31.336506,149.060902
"Coonamble","Coonamble Shire Council","New South Wales",2829,-30.949607,148.381081,-30.678669,148.619534,-31.215681,147.992158
"Cooperabung","","New South Wales",2441,-31.296811,152.804164,-31.220739,152.857026,-31.326307,152.729660
"Coopernook","Greater Taree City Council","New South Wales",2426,-31.823611,152.600000,-31.800794,152.647634,-31.866277,152.580370
"Coopers Gully","Bega Valley Shire Council","New South Wales",2550,-36.647329,149.800662,-36.630018,149.825674,-36.671833,149.761273
"Coopers Shoot","Byron Shire Council","New South Wales",2479,-28.697413,153.562907,-28.673070,153.600676,-28.710102,153.537758
"Coorabell","Byron Shire Council","New South Wales",2479,-28.639308,153.492103,-28.596322,153.540763,-28.658855,153.462311
"Cooranbong","Lake Macquarie City Council","New South Wales",2265,-33.074000,151.451000,-32.997841,151.522010,-33.107205,151.413907
"Cootamundra","Cootamundra Shire Council","New South Wales",2590,-34.641667,148.025000,-34.431100,148.269250,-34.838628,147.796796
"Cooyal","Mid-Western Regional Council","New South Wales",2850,-32.449681,149.769466,-32.394215,149.833734,-32.490087,149.720827
"Copacabana","Gosford City Council","New South Wales",2251,-33.490000,151.435000,-33.479474,151.447116,-33.493322,151.422514
"Copmanhurst","Clarence Valley Council","New South Wales",2460,-29.576779,152.797064,-29.541649,152.822344,-29.608993,152.771703
"Coraki","","New South Wales",2471,-28.993391,153.281699,-28.940257,153.310127,-29.033737,153.239259
"Coralville","Johnson County","Iowa",,41.682276,-91.596064,41.723410,-91.549192,41.666382,-91.646947
"Coramba","Coffs Harbour City Council","New South Wales",2450,-30.216667,153.016667,-30.147384,153.090953,-30.248830,152.983144
"Corbie Hill","","New South Wales",2705,-34.566667,146.450000,-34.470491,146.562940,-34.611984,146.441367
"Cordeaux Heights","Wollongong City Council","New South Wales",2526,-34.439667,150.834333,-34.435254,150.843216,-34.454913,150.813283
"Coreen","Corowa Shire Council","New South Wales",2646,-35.750773,146.346409,-35.665523,146.473883,-35.826187,146.154802
"Corindi Beach","Coffs Harbour City Council","New South Wales",2456,-30.015481,153.185540,-29.984420,153.210458,-30.055594,153.151975
"Corlette","Port Stephens Council","New South Wales",2315,-32.724722,152.114722,-32.716383,152.130981,-32.733373,152.100376
"Corndale (NSW)","Lismore City Council","New South Wales",2480,-28.709268,153.362352,-28.669034,153.388769,-28.742312,153.340265
"Corowa","Corowa Shire Council","New South Wales",2646,-35.983333,146.383333,-35.935698,146.424808,-36.051061,146.300900
"Corrimal","Wollongong City Council","New South Wales",2518,-34.366667,150.891667,-34.356847,150.908756,-34.382961,150.869745
"Cottage Point","Warringah Council","New South Wales",2084,-33.620910,151.202250,-33.615320,151.207373,-33.623181,151.199252
"Courabyra","Tumbarumba Shire Council","New South Wales",2653,-35.709709,148.009324,-35.666398,148.058358,-35.738809,147.919605
"Couridjah","Wollondilly Shire Council","New South Wales",2571,-34.233333,150.550000,-34.225139,150.566642,-34.246023,150.542566
"Coutts Crossing","Clarence Valley Council","New South Wales",2460,-29.816667,152.883333,-29.810411,152.939835,-29.903271,152.845978
"Cowan","The Council of the Shire of Hornsby","New South Wales",2081,-33.590720,151.169560,-33.519952,151.199161,-33.618671,151.131038
"Cowra","Cowra Shire Council","New South Wales",2794,-33.828144,148.677850,-33.673111,148.834041,-34.027463,148.436237
"Coxs Creek","Nelson County","Kentucky",,37.898974,-85.473353,37.922036,-85.459112,37.877754,-85.503092
"Crabbes Creek","Tweed Shire Council","New South Wales",2483,-28.455356,153.492103,-28.441737,153.528393,-28.479975,153.440539
"Cranebrook","Penrith City Council","New South Wales",2749,-33.720880,150.713020,-33.678761,150.728063,-33.735100,150.688500
"Crangan Bay","","New South Wales",2259,-33.174000,151.593000,-33.148425,151.612630,-33.186555,151.577992
"Craven","Division No. 6","Saskatchewan",,50.708225,-104.809207,50.713273,-104.777961,50.702642,-104.814306
"Cremorne (NSW)","North Sydney Council","New South Wales",2090,-33.828869,151.225549,-33.816817,151.232907,-33.837859,151.217325
"Cremorne Point","North Sydney Council","New South Wales",2090,-33.840760,151.227890,-33.836325,151.233022,-33.848710,151.223755
"Crescent Head","Kempsey Shire Council","New South Wales",2440,-31.186150,152.913237,-31.117590,153.005348,-31.310532,152.851832
"Crestwood","The Hills Shire Council","New South Wales",2153,-33.743861,150.975170,0.000000,0.000000,0.000000,0.000000
"Cringila","Wollongong City Council","New South Wales",2502,-34.471111,150.871944,-34.462522,150.875417,-34.479444,150.857810
"Cromer (NSW)","Warringah Council","New South Wales",2099,-33.741420,151.282270,-33.716115,151.290757,-33.744759,151.245879
"Cronulla","Sutherland Shire Council","New South Wales",2230,-34.057440,151.152190,-34.039013,151.165261,-34.077645,151.143137
"Crookwell","Upper Lachlan Shire Council","New South Wales",2583,-34.464675,149.474382,-34.337902,149.562302,-34.560775,149.339217
"Crosslands","The Council of the Shire of Hornsby","New South Wales",2077,-33.628941,151.109117,0.000000,0.000000,0.000000,0.000000
"Croudace Bay","Lake Macquarie City Council","New South Wales",2280,-33.004000,151.643000,-33.002114,151.655150,-33.007798,151.640546
"Crowdy Bay National Park","Greater Taree City Council","New South Wales",2443,-31.774947,152.743162,-31.721470,152.805215,-31.854962,152.656981
"Crowdy Head","Greater Taree City Council","New South Wales",2427,-31.844324,152.726510,-31.828865,152.754794,-31.853791,152.702956
"Crows Nest (NSW)","North Sydney Council","New South Wales",2065,-33.826130,151.205050,-33.819975,151.209467,-33.831165,151.197861
"Croydon (NSW)","","New South Wales",2132,-33.879040,151.115530,-33.869703,151.127576,-33.891858,151.106272
"Croydon Park (NSW)","","New South Wales",2133,-33.896790,151.109510,-33.891355,151.117000,-33.903652,151.089010
"Crystal Creek (NSW)","Tweed Shire Council","New South Wales",2484,-28.320886,153.315189,-28.293902,153.338384,-28.334925,153.294055
"Cudal","Cabonne Shire Council","New South Wales",2864,-33.287919,148.739509,-33.235675,148.817380,-33.410716,148.654049
"Cudgen","Tweed Shire Council","New South Wales",2487,-28.283333,153.550000,-28.256575,153.572389,-28.289007,153.521081
"Cudgera Creek","Tweed Shire Council","New South Wales",2484,-28.383333,153.516667,-28.357937,153.555758,-28.416835,153.477038
"Cudmirrah","Shoalhaven City Council","New South Wales",2540,-35.198427,150.557402,-35.193415,150.563121,-35.204843,150.550023
"Culburra Beach","Shoalhaven City Council","New South Wales",2540,-34.920726,150.766196,-34.903766,150.778693,-34.932378,150.765189
"Culcairn","Greater Hume Shire Council","New South Wales",2660,-35.673759,147.038627,-35.581532,147.136346,-35.789557,146.866368
"Cullen Bullen","Lithgow City Council","New South Wales",2790,-33.300000,150.016667,-33.211130,150.091610,-33.337338,149.942329
"Cumbalum","Ballina Shire Council","New South Wales",2478,-28.827220,153.526940,-28.793932,153.565953,-28.841375,153.510125
"Cumberland Reach","Hawkesbury City Council","New South Wales",2756,-33.456000,150.896000,-33.451235,150.905246,-33.474484,150.883690
"Cumboogle","Dubbo City Council","New South Wales",2830,-32.320627,148.606805,-32.317615,148.620465,-32.329022,148.591527
"Cumborah","Walgett Shire Council","New South Wales",2832,-29.738888,147.765987,-29.353562,147.905775,-29.873107,147.345800
"Cumnock","Cabonne Shire Council","New South Wales",2867,-32.934664,148.759541,-32.794428,148.853098,-33.064721,148.481069
"Cundletown","Greater Taree City Council","New South Wales",2430,-31.882088,152.526743,-31.852469,152.554666,-31.909006,152.494698
"Cunjurong Point","Shoalhaven City Council","New South Wales",2539,-35.263090,150.508082,-35.255848,150.517952,-35.273378,150.494389
"Curl Curl","Warringah Council","New South Wales",2096,-33.772130,151.289920,-33.764519,151.299483,-33.775905,151.278625
"Curlewis (NSW)","","New South Wales",2381,-31.116667,150.266667,-31.047809,150.436464,-31.336881,150.074613
"Curlwaa","Wentworth Shire Council","New South Wales",2648,-34.100000,141.966667,-34.074184,142.024401,-34.136295,141.937590
"Currabubula","Liverpool Plains Shire Council","New South Wales",2342,-31.256315,150.748188,-31.123461,150.795863,-31.331246,150.575267
"Curramore (NSW)","The Council of the Municipality of Kiama","New South Wales",2533,-34.623531,150.762110,-34.605893,150.786688,-34.639749,150.742365
"Currans Hill","Camden Council","New South Wales",2567,-34.040840,150.768530,-34.032506,150.786572,-34.059852,150.760964
"Currarong","Shoalhaven City Council","New South Wales",2540,-35.016667,150.816667,-35.010268,150.830615,-35.019572,150.811011
"Currawarna","Wagga Wagga City Council","New South Wales",2650,-35.016667,147.066667,-34.880461,147.163469,-35.048506,146.978823
"Daceyville","The Council of the City of Botany Bay","New South Wales",2032,-33.927930,151.223490,-33.924960,151.229859,-33.932811,151.220687
"Daleys Point","Gosford City Council","New South Wales",2257,-33.503000,151.347000,-33.495818,151.366697,-33.513893,151.343778
"Dalgety","Snowy River Shire Council","New South Wales",2628,-36.500000,148.833333,-36.438358,148.930228,-36.605219,148.696040
"Dalmeny","Eurobodalla Shire Council","New South Wales",2546,-36.166667,150.133333,-36.148456,150.136048,-36.180022,150.090240
"Dalton","Upper Lachlan Shire Council","New South Wales",2581,-34.743630,149.200002,-34.662335,149.245544,-34.790981,149.122103
"Dalwood (Ballina - NSW)","Ballina Shire Council","New South Wales",2477,-28.892022,153.409526,-28.877620,153.446212,-28.910095,153.384075
"Dandry","Warrumbungle Shire Council","New South Wales",2357,-31.145693,149.424499,-30.863242,149.677569,-31.222936,149.218083
"Dangar Island","The Council of the Shire of Hornsby","New South Wales",2083,-33.541420,151.238100,-33.536628,151.243983,-33.542388,151.234871
"Dapto","Wollongong City Council","New South Wales",2530,-34.491667,150.791667,-34.479022,150.808376,-34.528377,150.781539
"Darawank","Great Lakes Council","New South Wales",2428,-32.088490,152.475812,-32.068411,152.546322,-32.146999,152.460519
"Darbys Falls","Cowra Shire Council","New South Wales",2793,-33.920194,148.867861,-33.859221,148.896151,-33.952226,148.803791
"Dareton","Wentworth Shire Council","New South Wales",2717,-34.094367,142.040081,-34.089245,142.048928,-34.106708,142.021385
"Dargan","Lithgow City Council","New South Wales",2786,-33.490015,150.248710,-33.467679,150.273730,-33.505352,150.228630
"Darkes Forest","","New South Wales",2508,-34.229969,150.908403,-34.181048,150.956650,-34.251517,150.857451
"Darkwood","Bellingen Shire Council","New South Wales",2454,-30.433570,152.672142,-30.373971,152.724307,-30.484023,152.551669
"Darling Point","Woollahra Municipal Council","New South Wales",2027,-33.870210,151.237460,-33.866453,151.241900,-33.878352,151.229373
"Darlinghurst","Council of the City of Sydney","New South Wales",2010,-33.878018,151.220444,-33.873730,151.229545,-33.885103,151.212114
"Darlington (Singleton - NSW)","Singleton Shire Council","New South Wales",2330,-32.561483,151.162193,-32.559335,151.167266,-32.562492,151.158162
"Darlington (Sydney - NSW)","Council of the City of Sydney","New South Wales",2008,-33.890334,151.196610,-33.887683,151.198825,-33.894065,151.187669
"Darlington Point","Murrumbidgee Shire Council","New South Wales",2706,-34.566667,146.000000,-34.436947,146.229650,-34.720615,145.507049
"Daruka","Tamworth Regional Council","New South Wales",2340,-31.048611,150.973611,-31.002810,151.000367,-31.079039,150.942677
"Davidson","Warringah Council","New South Wales",2085,-33.738010,151.192970,-33.729849,151.203489,-33.749159,151.180256
"Davistown","Gosford City Council","New South Wales",2251,-33.482000,151.360000,-33.477413,151.374791,-33.492141,151.349103
"Dawes Point","","New South Wales",2000,-33.856000,151.207000,-33.853550,151.209999,-33.858790,151.203906
"Dean Park","Blacktown City Council","New South Wales",2761,-33.733300,150.850000,-33.729978,150.870518,-33.741419,150.849156
"Dee Why","Warringah Council","New South Wales",2099,-33.754400,151.285400,-33.740625,151.304409,-33.761391,151.277641
"Deepwater (NSW)","","New South Wales",2371,-29.445554,151.846817,-29.327185,152.142677,-29.561367,151.762454
"Deer Vale","Bellingen Shire Council","New South Wales",2453,-30.360396,152.528633,-30.292660,152.603645,-30.406049,152.474667
"Delegate","Bombala Council","New South Wales",2633,-37.045524,148.936750,-36.956705,149.053604,-37.119136,148.752890
"Delroy Heights","Dubbo City Council","New South Wales",2830,-32.259402,148.498620,-32.254887,148.514393,-32.261933,148.482983
"Delungra","","New South Wales",2403,-29.619662,150.819508,-29.496529,150.967676,-29.773271,150.573853
"Denham Court","","New South Wales",2565,-33.996680,150.839730,-33.956171,150.854259,-34.006979,150.804583
"Denhams Beach","Eurobodalla Shire Council","New South Wales",2536,-35.748280,150.212522,-35.746171,150.216753,-35.756427,150.207221
"Deniliquin","","New South Wales",2710,-35.528241,144.956578,-35.400690,145.149674,-35.694878,144.622315
"Denistone","Ryde City Council","New South Wales",2114,-33.800850,151.086480,-33.792900,151.100512,-33.804494,151.079103
"Denistone East","Ryde City Council","New South Wales",2112,-33.798850,151.099480,-33.791273,151.103970,-33.802385,151.089446
"Denistone West","Ryde City Council","New South Wales",2114,-33.800722,151.077705,-33.797821,151.080786,-33.803825,151.073114
"Denman","Muswellbrook Shire Council","New South Wales",2328,-32.383333,150.683333,-32.317075,150.800702,-32.437714,150.603589
"Deua River Valley","Eurobodalla Shire Council","New South Wales",2537,-35.830223,149.977536,-35.666336,150.010285,-35.905702,149.812185
"Dharruk","Blacktown City Council","New South Wales",2770,-33.748070,150.815900,-33.742973,150.820357,-33.756336,150.809296
"Diamond Beach","Greater Taree City Council","New South Wales",2430,-32.028558,152.535552,-32.006518,152.566067,-32.053434,152.516999
"Dignams Creek","","New South Wales",2546,-36.323277,149.974647,-36.238692,150.055405,-36.391448,149.884706
"Dolans Bay","Sutherland Shire Council","New South Wales",2229,-34.062590,151.126410,-34.057241,151.132559,-34.067808,151.122841
"Dolls Point","Rockdale City Council","New South Wales",2219,-33.993860,151.143010,-33.991847,151.148904,-33.995325,151.140214
"Dolphin Point","Shoalhaven City Council","New South Wales",2539,-35.401393,150.444282,-35.391872,150.449984,-35.411002,150.437369
"Dondingalong","","New South Wales",2440,-31.146391,152.744146,-31.086561,152.804721,-31.216460,152.693585
"Doonbah","Richmond Valley Council","New South Wales",2473,-29.084510,153.388886,-29.068003,153.401601,-29.100103,153.374585
"Doonside","Blacktown City Council","New South Wales",2767,-33.763984,150.869659,-33.741419,150.885803,-33.783422,150.855085
"Dooralong","Wyong Shire Council","New South Wales",2259,-33.182000,151.351000,-33.146642,151.397109,-33.204310,151.342063
"Dora Creek","Lake Macquarie City Council","New South Wales",2264,-33.082000,151.501000,-33.055766,151.534823,-33.093889,151.474998
"Dorrigo","Bellingen Shire Council","New South Wales",2453,-30.333333,152.716667,-30.294896,152.735109,-30.360475,152.649635
"Double Bay","Woollahra Municipal Council","New South Wales",2028,-33.877500,151.241200,-33.871728,151.249011,-33.886395,151.237180
"Doubtful Creek","Kyogle Council","New South Wales",2470,-28.682033,152.865436,-28.665602,152.926167,-28.754403,152.821574
"Douglas Park","Wollondilly Shire Council","New South Wales",2569,-34.188438,150.712494,-34.157631,150.751887,-34.229652,150.673510
"Dover Heights","Waverley Council","New South Wales",2030,-33.871850,151.278370,-33.864679,151.284847,-33.883365,151.277143
"Downside","Wagga Wagga City Council","New South Wales",2650,-35.026125,147.374374,-34.930034,147.416006,-35.070364,147.255372
"Doyalson","Wyong Shire Council","New South Wales",2262,-33.199000,151.518000,-33.180282,151.535718,-33.208611,151.488100
"Doyalson North","Wyong Shire Council","New South Wales",2262,-33.187000,151.543000,-33.169317,151.558095,-33.193072,151.533953
"Drake","Tenterfield Shire Council","New South Wales",2469,-28.927145,152.376238,0.000000,0.000000,0.000000,0.000000
"Drummoyne","City of Canada Bay Council","New South Wales",2047,-33.853520,151.154020,-33.842062,151.164705,-33.862090,151.141902
"Dubbo","Dubbo City Council","New South Wales",2830,-32.231502,148.632965,-32.065514,148.848855,-32.497309,148.359790
"Duckenfield","Maitland City Council","New South Wales",2321,-32.733190,151.685951,-32.727089,151.691541,-32.753967,151.674326
"Duckmaloi","Oberon Council","New South Wales",2787,-33.820091,149.910371,-33.743952,149.933476,-33.896231,149.887265
"Dudley","Lake Macquarie City Council","New South Wales",2290,-32.990000,151.718000,-32.970535,151.732215,-33.011174,151.708008
"Duffys Forest","Warringah Council","New South Wales",2084,-33.675250,151.197890,-33.656076,151.205547,-33.688979,151.173246
"Dulguigan","Tweed Shire Council","New South Wales",2484,-28.275674,153.409526,-28.264059,153.449941,-28.295221,153.391048
"Dulwich Hill","Marrickville Council","New South Wales",2203,-33.908333,151.141667,-33.895281,151.149035,-33.914098,151.128507
"Dumaresq Island","Greater Taree City Council","New South Wales",2430,-31.908128,152.503254,-31.897348,152.549066,-31.919632,152.471833
"Dunbible","Tweed Shire Council","New South Wales",2484,-28.379017,153.385938,-28.344767,153.427901,-28.398062,153.367225
"Dunbogan","Port Macquarie-Hastings Council","New South Wales",2443,-31.663103,152.808825,-31.642945,152.835978,-31.677422,152.792869
"Dundas (NSW)","Parramatta City Council","New South Wales",2117,-33.804040,151.035100,-33.796613,151.057503,-33.809472,151.027739
"Dundas Valley","Parramatta City Council","New South Wales",2117,-33.793120,151.059990,-33.785118,151.066400,-33.799334,151.045141
"Dundee","Dundee City","Scotland",,56.462018,-2.970721,56.505597,-2.835642,56.443604,-3.098025
"Dundurrabin","Clarence Valley Council","New South Wales",2453,-30.187673,152.552437,-30.039175,152.610127,-30.236753,152.430017
"Dunedoo","Warrumbungle Shire Council","New South Wales",2844,-31.998806,149.315307,-31.778675,149.584292,-32.304746,148.997084
"Dungay","Tweed Shire Council","New South Wales",2484,-28.283333,153.366667,-28.245415,153.385075,-28.297880,153.324662
"Dungog","Dungog Shire Council","New South Wales",2420,-32.404663,151.752415,-32.386885,151.768963,-32.418068,151.736582
"Dungowan","Tamworth Regional Council","New South Wales",2340,-31.223719,151.161439,-31.130099,151.289101,-31.307975,151.072751
"Dunmore (NSW)","Shellharbour City Council","New South Wales",2529,-34.618478,150.820235,-34.588978,150.853085,-34.643238,150.793003
"Dunoon","Argyll and Bute","Scotland",,55.950973,-4.926214,55.962185,-4.914035,55.908913,-4.957168
"Duns Creek","Port Stephens Council","New South Wales",2321,-32.604417,151.655278,-32.578850,151.687109,-32.640674,151.594931
"Dural (Hornsby - NSW)","","New South Wales",2158,-33.682000,151.029000,-33.649895,151.088486,-33.720069,150.994458
"Duranbah","Tweed Shire Council","New South Wales",2487,-28.316667,153.533333,-28.274849,153.546343,-28.326762,153.510979
"Duri","Tamworth Regional Council","New South Wales",2344,-31.215278,150.817778,-31.170779,150.888172,-31.302644,150.728504
"Durras North","Shoalhaven City Council","New South Wales",2536,-35.636525,150.303094,-35.609330,150.321345,-35.644618,150.268671
"Dyers Crossing","Greater Taree City Council","New South Wales",2429,-32.080492,152.321315,-32.042461,152.342986,-32.114817,152.258868
"Eagle Vale","Campbelltown City Council","New South Wales",2558,-34.036860,150.811440,-34.028870,150.823900,-34.046980,150.798362
"Eagleton","Port Stephens Council","New South Wales",2324,-32.695658,151.776577,-32.678325,151.810307,-32.713975,151.749056
"Earlwood","Canterbury City Council","New South Wales",2206,-33.920180,151.126820,-33.913085,151.155241,-33.936785,151.107252
"East Albury","Albury City Council","New South Wales",2640,-36.075000,146.930000,-36.064826,146.959209,-36.115968,146.919032
"East Ballina","Ballina Shire Council","New South Wales",2478,-28.853731,153.586513,-28.840525,153.608770,-28.876712,153.569914
"East Bowral","Wingecarribee Shire Council","New South Wales",2576,-34.479167,150.418056,-34.452568,150.490815,-34.513284,150.369226
"East Branxton","Cessnock City Council","New South Wales",2335,-32.654936,151.363311,-32.650446,151.374440,-32.660076,151.354723
"East Coraki","","New South Wales",2471,-29.027127,153.309294,-28.965121,153.352903,-29.060643,153.268959
"East Corrimal","Wollongong City Council","New South Wales",2518,-34.376389,150.910833,-34.371760,150.921043,-34.383111,150.903520
"East Gosford","Gosford City Council","New South Wales",2250,-33.432000,151.351000,-33.425072,151.363546,-33.445240,151.345466
"East Gresford","Dungog Shire Council","New South Wales",2311,-32.437385,151.557622,-32.366877,151.594766,-32.461639,151.529614
"East Hills","Bankstown City Council","New South Wales",2213,-33.963960,150.989740,-33.954892,150.995521,-33.967495,150.980217
"East Jindabyne","Snowy River Shire Council","New South Wales",2627,-36.394829,148.650575,-36.366417,148.713745,-36.454268,148.622746
"East Kempsey","Kempsey Shire Council","New South Wales",2440,-31.083740,152.852936,-31.070004,152.869267,-31.092064,152.833965
"East Killara","Ku-Ring-Gai Council","New South Wales",2071,-33.755920,151.179730,-33.746643,151.195761,-33.768165,151.168106
"East Kurrajong","Hawkesbury City Council","New South Wales",2758,-33.515278,150.767778,-33.481125,150.868125,-33.528788,150.691940
"East Lindfield","Ku-Ring-Gai Council","New South Wales",2070,-33.772740,151.187260,-33.758518,151.198829,-33.776223,151.177841
"East Lismore","Lismore City Council","New South Wales",2480,-28.825909,153.288664,-28.812788,153.306220,-28.835317,153.266051
"East Maitland","Maitland City Council","New South Wales",2323,-32.749000,151.576000,-32.735293,151.625974,-32.788338,151.555049
"East Ryde","Ryde City Council","New South Wales",2113,-33.810000,151.135000,-33.803443,151.143943,-33.818196,151.127212
"East Seaham","Port Stephens Council","New South Wales",2324,-32.640000,151.748333,-32.584883,151.813474,-32.679519,151.720155
"East Tamworth","Tamworth Regional Council","New South Wales",2340,-31.089722,150.943611,-31.075163,150.976407,-31.122181,150.928911
"East Wagga Wagga","Wagga Wagga City Council","New South Wales",2650,-35.121200,147.385467,-35.110059,147.423613,-35.147408,147.376539
"Eastern Creek","Blacktown City Council","New South Wales",2766,-33.805878,150.870137,0.000000,0.000000,0.000000,0.000000
"Eastgardens","The Council of the City of Botany Bay","New South Wales",2036,-33.946000,151.225000,-33.939459,151.231493,-33.950560,151.221453
"Eastlakes","The Council of the City of Botany Bay","New South Wales",2018,-33.925000,151.213333,-33.922956,151.221617,-33.939227,151.200347
"Eastwood (NSW)","","New South Wales",2122,-33.790362,151.081731,-33.777358,151.105021,-33.799662,151.063912
"Eatonsville","Clarence Valley Council","New South Wales",2460,-29.648814,152.832350,-29.609241,152.863806,-29.669860,152.794488
"Ebenezer (NSW)","Hawkesbury City Council","New South Wales",2756,-33.531800,150.867900,-33.486328,150.927377,-33.547112,150.849482
"Ebor","","New South Wales",2453,-30.400000,152.350000,-30.281384,152.428078,-30.529474,152.203390
"Eden","Bega Valley Shire Council","New South Wales",2551,-37.066667,149.900000,-36.941530,149.947944,-37.097078,149.840252
"Eden Creek","Kyogle Council","New South Wales",2474,-28.587894,152.903676,-28.546215,152.960655,-28.630893,152.869471
"Edensor Park","Fairfield City Council","New South Wales",2176,-33.880950,150.875160,-33.868762,150.890387,-33.889165,150.864633
"Edgecliff","Woollahra Municipal Council","New South Wales",2027,-33.879987,151.235745,-33.876219,151.242685,-33.883169,151.229269
"Edgeworth","Lake Macquarie City Council","New South Wales",2285,-32.924698,151.621665,-32.905447,151.640251,-32.934113,151.595753
"Edith (NSW)","Oberon Council","New South Wales",2787,-33.796339,149.913979,-33.723352,149.995002,-33.826502,149.868860
"Edmondson Park","Liverpool City Council","New South Wales",2174,-33.963710,150.856420,-33.950104,150.876669,-33.978217,150.841261
"Eglinton (NSW)","Bathurst Regional Council","New South Wales",2795,-33.372503,149.540399,-33.317923,149.601583,-33.399505,149.510777
"Elands","","New South Wales",2429,-31.627361,152.304964,-31.512183,152.349278,-31.654615,152.194854
"Elanora Heights","Pittwater Council","New South Wales",2101,-33.701020,151.278900,-33.690945,151.287542,-33.709078,151.258814
"Elderslie (Camden - NSW)","Camden Council","New South Wales",2570,-34.054620,150.712500,-34.043907,150.730466,-34.071197,150.699563
"Eleebana","Lake Macquarie City Council","New South Wales",2282,-32.996000,151.635000,-32.983057,151.661417,-33.003633,151.629519
"Elermore Vale","Newcastle City Council","New South Wales",2287,-32.915000,151.668000,-32.907723,151.687049,-32.924837,151.636796
